[
  {
    "city": "Arendal",
    "lat": 58.46475606,
    "lng": 8.766000553,
    "country": "Norway"
  },
  {
    "city": "Vossavangen",
    "lat": 60.63000316,
    "lng": 6.441003463,
    "country": "Norway"
  },
  {
    "city": "Leikanger",
    "lat": 61.18329612,
    "lng": 6.849999471,
    "country": "Norway"
  },
  {
    "city": "Bærum",
    "lat": 59.91348606,
    "lng": 11.34723651,
    "country": "Norway"
  },
  {
    "city": "Hamar",
    "lat": 60.82000207,
    "lng": 11.06900156,
    "country": "Norway"
  },
  {
    "city": "Tønsberg",
    "lat": 59.26400109,
    "lng": 10.42100147,
    "country": "Norway"
  },
  {
    "city": "Finnsnes",
    "lat": 69.24061729,
    "lng": 18.00860592,
    "country": "Norway"
  },
  {
    "city": "Gjøvik",
    "lat": 60.80002138,
    "lng": 10.7000081,
    "country": "Norway"
  },
  {
    "city": "Rørvik",
    "lat": 64.86801597,
    "lng": 11.20530025,
    "country": "Norway"
  },
  {
    "city": "Harstad",
    "lat": 68.7879059,
    "lng": 16.51557043,
    "country": "Norway"
  },
  {
    "city": "Ålesund",
    "lat": 62.54541872,
    "lng": 6.388023233,
    "country": "Norway"
  },
  {
    "city": "Sandnes",
    "lat": 58.84541201,
    "lng": 5.690029662,
    "country": "Norway"
  },
  {
    "city": "Drammen",
    "lat": 59.75724265,
    "lng": 10.19073686,
    "country": "Norway"
  },
  {
    "city": "Moss",
    "lat": 59.43697797,
    "lng": 10.66915727,
    "country": "Norway"
  },
  {
    "city": "Steinkjer",
    "lat": 64.01706016,
    "lng": 11.50001094,
    "country": "Norway"
  },
  {
    "city": "Svolvær",
    "lat": 68.23328859,
    "lng": 14.56669714,
    "country": "Norway"
  },
  {
    "city": "Mo i Rana",
    "lat": 66.31660972,
    "lng": 14.16666988,
    "country": "Norway"
  },
  {
    "city": "Narvik",
    "lat": 68.38315025,
    "lng": 17.28999345,
    "country": "Norway"
  },
  {
    "city": "Bodø",
    "lat": 67.24677227,
    "lng": 14.39901132,
    "country": "Norway"
  },
  {
    "city": "Haugesund",
    "lat": 59.4119149,
    "lng": 5.277496703,
    "country": "Norway"
  },
  {
    "city": "Stavanger",
    "lat": 58.97000389,
    "lng": 5.680004434,
    "country": "Norway"
  },
  {
    "city": "Skien",
    "lat": 59.19998985,
    "lng": 9.600023558,
    "country": "Norway"
  },
  {
    "city": "Namsos",
    "lat": 64.48331077,
    "lng": 11.50001094,
    "country": "Norway"
  },
  {
    "city": "Alta",
    "lat": 69.96664532,
    "lng": 23.24167151,
    "country": "Norway"
  },
  {
    "city": "Vadsø",
    "lat": 70.09659678,
    "lng": 29.76574927,
    "country": "Norway"
  },
  {
    "city": "Molde",
    "lat": 62.74830039,
    "lng": 7.183323526,
    "country": "Norway"
  },
  {
    "city": "Lillehammer",
    "lat": 61.13328269,
    "lng": 10.5000203,
    "country": "Norway"
  },
  {
    "city": "Kirkenes",
    "lat": 69.72500633,
    "lng": 30.05164343,
    "country": "Norway"
  },
  {
    "city": "Kristiansand",
    "lat": 58.16664207,
    "lng": 8.000017862,
    "country": "Norway"
  },
  {
    "city": "Hammerfest",
    "lat": 70.66127993,
    "lng": 23.68800085,
    "country": "Norway"
  },
  {
    "city": "Tromsø",
    "lat": 69.63507623,
    "lng": 18.99202525,
    "country": "Norway"
  },
  {
    "city": "Trondheim",
    "lat": 63.41665753,
    "lng": 10.41666622,
    "country": "Norway"
  },
  {
    "city": "Bergen",
    "lat": 60.39100242,
    "lng": 5.324522256,
    "country": "Norway"
  },
  {
    "city": "Oslo",
    "lat": 59.91669029,
    "lng": 10.74997921,
    "country": "Norway"
  }
]