[
  {
    "city": "Qal eh-ye Now",
    "lat": 34.98300013,
    "lng": 63.13329964,
    "country": "Afghanistan"
  },
  {
    "city": "Chaghcharan",
    "lat": 34.5167011,
    "lng": 65.25000063,
    "country": "Afghanistan"
  },
  {
    "city": "Lashkar Gah",
    "lat": 31.58299802,
    "lng": 64.35999955,
    "country": "Afghanistan"
  },
  {
    "city": "Zaranj",
    "lat": 31.11200108,
    "lng": 61.88699752,
    "country": "Afghanistan"
  },
  {
    "city": "Tarin Kowt",
    "lat": 32.63329815,
    "lng": 65.86669865,
    "country": "Afghanistan"
  },
  {
    "city": "Zareh Sharan",
    "lat": 32.85000016,
    "lng": 68.41670453,
    "country": "Afghanistan"
  },
  {
    "city": "Asadabad",
    "lat": 34.86600004,
    "lng": 71.15000459,
    "country": "Afghanistan"
  },
  {
    "city": "Taloqan",
    "lat": 36.72999904,
    "lng": 69.54000364,
    "country": "Afghanistan"
  },
  {
    "city": "Mahmud-E Eraqi",
    "lat": 35.01669608,
    "lng": 69.33330065,
    "country": "Afghanistan"
  },
  {
    "city": "Mehtar Lam",
    "lat": 34.65000001,
    "lng": 70.16670052,
    "country": "Afghanistan"
  },
  {
    "city": "Baraki Barak",
    "lat": 33.9667021,
    "lng": 68.96670354,
    "country": "Afghanistan"
  },
  {
    "city": "Aybak",
    "lat": 36.26100015,
    "lng": 68.04000051,
    "country": "Afghanistan"
  },
  {
    "city": "Mayda Shahr",
    "lat": 34.45000209,
    "lng": 68.79999663,
    "country": "Afghanistan"
  },
  {
    "city": "Karokh",
    "lat": 34.48676963,
    "lng": 62.59177608,
    "country": "Afghanistan"
  },
  {
    "city": "Sheberghan",
    "lat": 36.65798077,
    "lng": 65.73830237,
    "country": "Afghanistan"
  },
  {
    "city": "Pol-e Khomri",
    "lat": 35.95107302,
    "lng": 68.70111894,
    "country": "Afghanistan"
  },
  {
    "city": "Balkh",
    "lat": 36.75011985,
    "lng": 66.89973018,
    "country": "Afghanistan"
  },
  {
    "city": "Meymaneh",
    "lat": 35.93022158,
    "lng": 64.77009273,
    "country": "Afghanistan"
  },
  {
    "city": "Andkhvoy",
    "lat": 36.93165916,
    "lng": 65.10149369,
    "country": "Afghanistan"
  },
  {
    "city": "Qalat",
    "lat": 32.11226341,
    "lng": 66.8867594,
    "country": "Afghanistan"
  },
  {
    "city": "Ghazni",
    "lat": 33.56331179,
    "lng": 68.41782873,
    "country": "Afghanistan"
  },
  {
    "city": "Feyzabad",
    "lat": 37.12976076,
    "lng": 70.57924719,
    "country": "Afghanistan"
  },
  {
    "city": "Kondoz",
    "lat": 36.72795066,
    "lng": 68.87252966,
    "country": "Afghanistan"
  },
  {
    "city": "Jalalabad",
    "lat": 34.44152692,
    "lng": 70.43610347,
    "country": "Afghanistan"
  },
  {
    "city": "Charikar",
    "lat": 35.01826174,
    "lng": 69.16791215,
    "country": "Afghanistan"
  },
  {
    "city": "Gardiz",
    "lat": 33.60005373,
    "lng": 69.21462764,
    "country": "Afghanistan"
  },
  {
    "city": "Bamian",
    "lat": 34.82106447,
    "lng": 67.52103593,
    "country": "Afghanistan"
  },
  {
    "city": "Baghlan",
    "lat": 36.13933026,
    "lng": 68.69925858,
    "country": "Afghanistan"
  },
  {
    "city": "Farah",
    "lat": 32.39172955,
    "lng": 62.09681921,
    "country": "Afghanistan"
  },
  {
    "city": "Herat",
    "lat": 34.33000917,
    "lng": 62.16999304,
    "country": "Afghanistan"
  },
  {
    "city": "Mazar-e Sharif",
    "lat": 36.69999371,
    "lng": 67.10002803,
    "country": "Afghanistan"
  },
  {
    "city": "Kandahar",
    "lat": 31.61002016,
    "lng": 65.69494584,
    "country": "Afghanistan"
  },
  {
    "city": "Kabul",
    "lat": 34.51669029,
    "lng": 69.18326005,
    "country": "Afghanistan"
  },
  {
    "city": "Mariehamn",
    "lat": 60.09699618,
    "lng": 19.94900447,
    "country": "Aland"
  },
  {
    "city": "Kruje",
    "lat": 41.51899817,
    "lng": 19.79700359,
    "country": "Albania"
  },
  {
    "city": "Fier",
    "lat": 40.73000402,
    "lng": 19.5730026,
    "country": "Albania"
  },
  {
    "city": "Lushnje",
    "lat": 40.94000113,
    "lng": 19.71600348,
    "country": "Albania"
  },
  {
    "city": "Puke",
    "lat": 42.03330302,
    "lng": 19.88330448,
    "country": "Albania"
  },
  {
    "city": "Bajram Curri",
    "lat": 42.33330007,
    "lng": 20.08330257,
    "country": "Albania"
  },
  {
    "city": "Kukes",
    "lat": 42.08300107,
    "lng": 20.43399653,
    "country": "Albania"
  },
  {
    "city": "Sarande",
    "lat": 39.87700212,
    "lng": 19.99999859,
    "country": "Albania"
  },
  {
    "city": "Erseke",
    "lat": 40.33330213,
    "lng": 20.68329651,
    "country": "Albania"
  },
  {
    "city": "Pogradec",
    "lat": 40.89999612,
    "lng": 20.66400062,
    "country": "Albania"
  },
  {
    "city": "Korce",
    "lat": 40.61667601,
    "lng": 20.76666353,
    "country": "Albania"
  },
  {
    "city": "Berat",
    "lat": 40.70999705,
    "lng": 19.97199958,
    "country": "Albania"
  },
  {
    "city": "Corovode",
    "lat": 40.51670403,
    "lng": 20.23329663,
    "country": "Albania"
  },
  {
    "city": "Gramsh",
    "lat": 40.86669601,
    "lng": 20.19999652,
    "country": "Albania"
  },
  {
    "city": "Librazhd",
    "lat": 41.20000211,
    "lng": 20.3667036,
    "country": "Albania"
  },
  {
    "city": "Tepelene",
    "lat": 40.2832981,
    "lng": 20.03329854,
    "country": "Albania"
  },
  {
    "city": "Permet",
    "lat": 40.23399605,
    "lng": 20.35199756,
    "country": "Albania"
  },
  {
    "city": "Gjirokaster",
    "lat": 40.07899809,
    "lng": 20.14900256,
    "country": "Albania"
  },
  {
    "city": "Peshkopi",
    "lat": 41.6833021,
    "lng": 20.43330349,
    "country": "Albania"
  },
  {
    "city": "Burrel",
    "lat": 41.62599908,
    "lng": 20.01600053,
    "country": "Albania"
  },
  {
    "city": "Lezhe",
    "lat": 41.78799914,
    "lng": 19.65400254,
    "country": "Albania"
  },
  {
    "city": "Rreshen",
    "lat": 41.78330106,
    "lng": 19.81670459,
    "country": "Albania"
  },
  {
    "city": "Vlore",
    "lat": 40.47736005,
    "lng": 19.49823075,
    "country": "Albania"
  },
  {
    "city": "Elbasan",
    "lat": 41.12150677,
    "lng": 20.08382808,
    "country": "Albania"
  },
  {
    "city": "Durres",
    "lat": 41.3177997,
    "lng": 19.44820797,
    "country": "Albania"
  },
  {
    "city": "Shkoder",
    "lat": 42.06845156,
    "lng": 19.51884965,
    "country": "Albania"
  },
  {
    "city": "Tirana",
    "lat": 41.32754071,
    "lng": 19.81888301,
    "country": "Albania"
  },
  {
    "city": "Jijel",
    "lat": 36.82199703,
    "lng": 5.76600356,
    "country": "Algeria"
  },
  {
    "city": "Tizi-Ouzou",
    "lat": 36.80000111,
    "lng": 4.033332556,
    "country": "Algeria"
  },
  {
    "city": "Bordj Bou Arreridj",
    "lat": 36.05900401,
    "lng": 4.629996466,
    "country": "Algeria"
  },
  {
    "city": "M'sila",
    "lat": 35.7000031,
    "lng": 4.545000584,
    "country": "Algeria"
  },
  {
    "city": "Guelma",
    "lat": 36.46600213,
    "lng": 7.427997486,
    "country": "Algeria"
  },
  {
    "city": "Oum el Bouaghi",
    "lat": 35.84999715,
    "lng": 7.149996522,
    "country": "Algeria"
  },
  {
    "city": "Timimoun",
    "lat": 29.23652163,
    "lng": 0.269998737,
    "country": "Algeria"
  },
  {
    "city": "Sidi bel Abbes",
    "lat": 35.19034426,
    "lng": -0.639971559,
    "country": "Algeria"
  },
  {
    "city": "Tlimcen",
    "lat": 34.89041424,
    "lng": -1.32000757,
    "country": "Algeria"
  },
  {
    "city": "Beni Ounif",
    "lat": 32.04926984,
    "lng": -1.251381268,
    "country": "Algeria"
  },
  {
    "city": "Abadla",
    "lat": 31.01708478,
    "lng": -2.733306317,
    "country": "Algeria"
  },
  {
    "city": "Sefra",
    "lat": 32.76041506,
    "lng": -0.579949383,
    "country": "Algeria"
  },
  {
    "city": "Skikda",
    "lat": 36.88042198,
    "lng": 6.899981647,
    "country": "Algeria"
  },
  {
    "city": "Djanet",
    "lat": 24.5529057,
    "lng": 9.482252969,
    "country": "Algeria"
  },
  {
    "city": "I-n-Amenas",
    "lat": 28.0503408,
    "lng": 9.550000772,
    "country": "Algeria"
  },
  {
    "city": "In Amguel",
    "lat": 23.69394004,
    "lng": 5.164738727,
    "country": "Algeria"
  },
  {
    "city": "El Bayadh",
    "lat": 33.6903583,
    "lng": 1.009953571,
    "country": "Algeria"
  },
  {
    "city": "El Oued",
    "lat": 33.37040367,
    "lng": 6.859984089,
    "country": "Algeria"
  },
  {
    "city": "Hassi Messaoud",
    "lat": 31.70234011,
    "lng": 6.054451862,
    "country": "Algeria"
  },
  {
    "city": "Chlef",
    "lat": 36.17041363,
    "lng": 1.319960489,
    "country": "Algeria"
  },
  {
    "city": "Mascara",
    "lat": 35.40040895,
    "lng": 0.14003251,
    "country": "Algeria"
  },
  {
    "city": "Mostaganem",
    "lat": 35.940376,
    "lng": 0.089983885,
    "country": "Algeria"
  },
  {
    "city": "Saida",
    "lat": 34.84039146,
    "lng": 0.14003251,
    "country": "Algeria"
  },
  {
    "city": "Tiarat",
    "lat": 35.38043601,
    "lng": 1.319960489,
    "country": "Algeria"
  },
  {
    "city": "Bejaia",
    "lat": 36.76037762,
    "lng": 5.070015827,
    "country": "Algeria"
  },
  {
    "city": "Blida",
    "lat": 36.4203467,
    "lng": 2.829997517,
    "country": "Algeria"
  },
  {
    "city": "Bouira",
    "lat": 36.38047833,
    "lng": 3.900009724,
    "country": "Algeria"
  },
  {
    "city": "Medea",
    "lat": 36.27040753,
    "lng": 2.770001179,
    "country": "Algeria"
  },
  {
    "city": "Souk Ahras",
    "lat": 36.29038047,
    "lng": 7.949995075,
    "country": "Algeria"
  },
  {
    "city": "Tebessa",
    "lat": 35.41043418,
    "lng": 8.120010537,
    "country": "Algeria"
  },
  {
    "city": "Adrar",
    "lat": 27.86999005,
    "lng": -0.289967083,
    "country": "Algeria"
  },
  {
    "city": "Reggane",
    "lat": 26.69998395,
    "lng": 0.166645873,
    "country": "Algeria"
  },
  {
    "city": "Bechar",
    "lat": 31.61110537,
    "lng": -2.230003704,
    "country": "Algeria"
  },
  {
    "city": "Tindouf",
    "lat": 27.67418805,
    "lng": -8.147782025,
    "country": "Algeria"
  },
  {
    "city": "Illizi",
    "lat": 26.48335634,
    "lng": 8.466604369,
    "country": "Algeria"
  },
  {
    "city": "Arak",
    "lat": 25.2799931,
    "lng": 3.749993041,
    "country": "Algeria"
  },
  {
    "city": "I-n-Salah",
    "lat": 27.21664492,
    "lng": 2.466608845,
    "country": "Algeria"
  },
  {
    "city": "El Golea",
    "lat": 30.56662132,
    "lng": 2.883327595,
    "country": "Algeria"
  },
  {
    "city": "Laghouat",
    "lat": 33.80998924,
    "lng": 2.880020303,
    "country": "Algeria"
  },
  {
    "city": "Touggourt",
    "lat": 33.0999809,
    "lng": 6.05998124,
    "country": "Algeria"
  },
  {
    "city": "Ouargla",
    "lat": 31.96997235,
    "lng": 5.340025186,
    "country": "Algeria"
  },
  {
    "city": "Biskra",
    "lat": 34.85997683,
    "lng": 5.73002722,
    "country": "Algeria"
  },
  {
    "city": "Djelfa",
    "lat": 34.67998781,
    "lng": 3.250023558,
    "country": "Algeria"
  },
  {
    "city": "Setif",
    "lat": 36.18002545,
    "lng": 5.399969847,
    "country": "Algeria"
  },
  {
    "city": "Batna",
    "lat": 35.56995933,
    "lng": 6.170000365,
    "country": "Algeria"
  },
  {
    "city": "Annaba",
    "lat": 36.92000612,
    "lng": 7.759980834,
    "country": "Algeria"
  },
  {
    "city": "Constantine",
    "lat": 36.35998863,
    "lng": 6.599948281,
    "country": "Algeria"
  },
  {
    "city": "Oran",
    "lat": 35.71000246,
    "lng": -0.61997278,
    "country": "Algeria"
  },
  {
    "city": "Tamanrasset",
    "lat": 22.78500327,
    "lng": 5.522804727,
    "country": "Algeria"
  },
  {
    "city": "Ghardaia",
    "lat": 32.48999229,
    "lng": 3.669997923,
    "country": "Algeria"
  },
  {
    "city": "Algiers",
    "lat": 36.7630648,
    "lng": 3.05055253,
    "country": "Algeria"
  },
  {
    "city": "Pago Pago",
    "lat": -14.2766105,
    "lng": -170.7066451,
    "country": "American Samoa"
  },
  {
    "city": "Andorra",
    "lat": 42.50000144,
    "lng": 1.516485961,
    "country": "Andorra"
  },
  {
    "city": "Mucusso",
    "lat": -18.01953449,
    "lng": 21.42999914,
    "country": "Angola"
  },
  {
    "city": "Lucapa",
    "lat": -8.419603659,
    "lng": 20.74001542,
    "country": "Angola"
  },
  {
    "city": "Capenda-Camulemba",
    "lat": -9.4195943,
    "lng": 18.43002722,
    "country": "Angola"
  },
  {
    "city": "Saurimo",
    "lat": -9.659579652,
    "lng": 20.39001094,
    "country": "Angola"
  },
  {
    "city": "Muconda",
    "lat": -10.59962563,
    "lng": 21.31998002,
    "country": "Angola"
  },
  {
    "city": "Cacolo",
    "lat": -10.14962726,
    "lng": 19.2600024,
    "country": "Angola"
  },
  {
    "city": "Caxito",
    "lat": -8.579542217,
    "lng": 13.65998246,
    "country": "Angola"
  },
  {
    "city": "Camabatela",
    "lat": -8.189591859,
    "lng": 15.37000728,
    "country": "Angola"
  },
  {
    "city": "Ndalatando",
    "lat": -9.299549948,
    "lng": 14.90998368,
    "country": "Angola"
  },
  {
    "city": "Quibala",
    "lat": -10.72959186,
    "lng": 14.97995357,
    "country": "Angola"
  },
  {
    "city": "Calulo",
    "lat": -9.999610577,
    "lng": 14.90001013,
    "country": "Angola"
  },
  {
    "city": "Waku Kungo",
    "lat": -11.35952757,
    "lng": 15.1199967,
    "country": "Angola"
  },
  {
    "city": "Songo",
    "lat": -7.349591452,
    "lng": 14.84998734,
    "country": "Angola"
  },
  {
    "city": "Mbanza-Congo",
    "lat": -6.269605694,
    "lng": 14.23999874,
    "country": "Angola"
  },
  {
    "city": "Nzeto",
    "lat": -7.229598776,
    "lng": 12.86003129,
    "country": "Angola"
  },
  {
    "city": "Soyo",
    "lat": -6.129614239,
    "lng": 12.36998368,
    "country": "Angola"
  },
  {
    "city": "Cabinda",
    "lat": -5.55962319,
    "lng": 12.18999467,
    "country": "Angola"
  },
  {
    "city": "Calucinga",
    "lat": -11.31958169,
    "lng": 16.19998246,
    "country": "Angola"
  },
  {
    "city": "Camacupa",
    "lat": -12.01959064,
    "lng": 17.46998246,
    "country": "Angola"
  },
  {
    "city": "Cubal",
    "lat": -13.03958006,
    "lng": 14.23999874,
    "country": "Angola"
  },
  {
    "city": "Mavinga",
    "lat": -15.7895414,
    "lng": 20.36003861,
    "country": "Angola"
  },
  {
    "city": "Cuito Caunavale",
    "lat": -15.15960569,
    "lng": 19.16998205,
    "country": "Angola"
  },
  {
    "city": "Luiana",
    "lat": -17.36954832,
    "lng": 22.99998083,
    "country": "Angola"
  },
  {
    "city": "Ondjiva",
    "lat": -17.06961831,
    "lng": 15.73003699,
    "country": "Angola"
  },
  {
    "city": "Chitado",
    "lat": -17.31962889,
    "lng": 13.92001827,
    "country": "Angola"
  },
  {
    "city": "Chibemba",
    "lat": -15.74959552,
    "lng": 14.0800085,
    "country": "Angola"
  },
  {
    "city": "Chibia",
    "lat": -15.1896297,
    "lng": 13.69000647,
    "country": "Angola"
  },
  {
    "city": "Quipungo",
    "lat": -14.82954832,
    "lng": 14.55000565,
    "country": "Angola"
  },
  {
    "city": "Luau",
    "lat": -10.7095414,
    "lng": 22.23000199,
    "country": "Angola"
  },
  {
    "city": "Cangamba",
    "lat": -13.69959145,
    "lng": 19.86001745,
    "country": "Angola"
  },
  {
    "city": "Lumbala Nguimbo",
    "lat": -14.09961871,
    "lng": 21.44002437,
    "country": "Angola"
  },
  {
    "city": "Cazombo",
    "lat": -11.88957273,
    "lng": 22.90003861,
    "country": "Angola"
  },
  {
    "city": "Dundo",
    "lat": -7.380028871,
    "lng": 20.82998409,
    "country": "Angola"
  },
  {
    "city": "Ambriz",
    "lat": -7.85498696,
    "lng": 13.12502803,
    "country": "Angola"
  },
  {
    "city": "Dondo",
    "lat": -9.690017071,
    "lng": 14.43001298,
    "country": "Angola"
  },
  {
    "city": "Sumbe",
    "lat": -11.21002765,
    "lng": 13.8499967,
    "country": "Angola"
  },
  {
    "city": "Uige",
    "lat": -7.620014222,
    "lng": 15.04997514,
    "country": "Angola"
  },
  {
    "city": "Kuito",
    "lat": -12.38003375,
    "lng": 16.93998897,
    "country": "Angola"
  },
  {
    "city": "Lobito",
    "lat": -12.37000853,
    "lng": 13.54123002,
    "country": "Angola"
  },
  {
    "city": "Xangongo",
    "lat": -16.74002602,
    "lng": 14.96998002,
    "country": "Angola"
  },
  {
    "city": "Luena",
    "lat": -11.79004393,
    "lng": 19.90001501,
    "country": "Angola"
  },
  {
    "city": "Tômbua",
    "lat": -15.80003172,
    "lng": 11.85998897,
    "country": "Angola"
  },
  {
    "city": "Malanje",
    "lat": -9.540000388,
    "lng": 16.34002559,
    "country": "Angola"
  },
  {
    "city": "Benguela",
    "lat": -12.57826455,
    "lng": 13.40723303,
    "country": "Angola"
  },
  {
    "city": "Lubango",
    "lat": -14.91000853,
    "lng": 13.49001868,
    "country": "Angola"
  },
  {
    "city": "Namibe",
    "lat": -15.19004311,
    "lng": 12.16002234,
    "country": "Angola"
  },
  {
    "city": "Menongue",
    "lat": -14.66661253,
    "lng": 17.69999426,
    "country": "Angola"
  },
  {
    "city": "Huambo",
    "lat": -12.74998533,
    "lng": 15.76000932,
    "country": "Angola"
  },
  {
    "city": "Luanda",
    "lat": -8.838286114,
    "lng": 13.23442704,
    "country": "Angola"
  },
  {
    "city": "Artigas Base",
    "lat": -62.17388669,
    "lng": -58.86386407,
    "country": "Antarctica"
  },
  {
    "city": "Capitan Arturo Prat Station",
    "lat": -62.49950682,
    "lng": -59.68331852,
    "country": "Antarctica"
  },
  {
    "city": "Marambio Station",
    "lat": -64.23288939,
    "lng": -56.6500153,
    "country": "Antarctica"
  },
  {
    "city": "Zucchelli Station",
    "lat": -74.61919259,
    "lng": 164.2190271,
    "country": "Antarctica"
  },
  {
    "city": "Rothera Station",
    "lat": -67.5647756,
    "lng": -68.12354055,
    "country": "Antarctica"
  },
  {
    "city": "Palmer Station",
    "lat": -64.76241335,
    "lng": -64.0468756,
    "country": "Antarctica"
  },
  {
    "city": "Base Presidente Montalva",
    "lat": -62.18274357,
    "lng": -58.90765233,
    "country": "Antarctica"
  },
  {
    "city": "Carlini Station",
    "lat": -62.22414386,
    "lng": -58.65047599,
    "country": "Antarctica"
  },
  {
    "city": "King Sejong Station",
    "lat": -62.2248534,
    "lng": -58.77159876,
    "country": "Antarctica"
  },
  {
    "city": "Great Wall Station",
    "lat": -62.21631997,
    "lng": -58.9666956,
    "country": "Antarctica"
  },
  {
    "city": "Escudero Base",
    "lat": -62.19496251,
    "lng": -58.95266582,
    "country": "Antarctica"
  },
  {
    "city": "Elephant Island",
    "lat": -61.99958901,
    "lng": -57.99998458,
    "country": "Antarctica"
  },
  {
    "city": "Scott Base",
    "lat": -77.84693819,
    "lng": 166.7491023,
    "country": "Antarctica"
  },
  {
    "city": "McMurdo Station",
    "lat": -77.73228239,
    "lng": 166.8694157,
    "country": "Antarctica"
  },
  {
    "city": "Zhongshan Station",
    "lat": -69.43406299,
    "lng": 76.33929808,
    "country": "Antarctica"
  },
  {
    "city": "Vostok",
    "lat": -78.46628416,
    "lng": 106.8000337,
    "country": "Antarctica"
  },
  {
    "city": "Peter I Island",
    "lat": -68.83286701,
    "lng": 90.49999508,
    "country": "Antarctica"
  },
  {
    "city": "Mirny Station",
    "lat": -66.57552952,
    "lng": 93.00628846,
    "country": "Antarctica"
  },
  {
    "city": "Mawson Station",
    "lat": -67.61452032,
    "lng": 62.87500073,
    "country": "Antarctica"
  },
  {
    "city": "Davis Station",
    "lat": -68.77767439,
    "lng": 78.14073509,
    "country": "Antarctica"
  },
  {
    "city": "Concordia Research Station",
    "lat": -74.66630939,
    "lng": 124.1670357,
    "country": "Antarctica"
  },
  {
    "city": "Casey Station",
    "lat": -66.28608614,
    "lng": 110.536214,
    "country": "Antarctica"
  },
  {
    "city": "Amundsen–Scott South Pole Station",
    "lat": -89.98289386,
    "lng": 139.2669926,
    "country": "Antarctica"
  },
  {
    "city": "Wasa Station",
    "lat": -73.0496122,
    "lng": -13.41671106,
    "country": "Antarctica"
  },
  {
    "city": "Troll Station",
    "lat": -72.01629026,
    "lng": 2.533323119,
    "country": "Antarctica"
  },
  {
    "city": "Svea Station",
    "lat": -74.58290363,
    "lng": -11.21669031,
    "country": "Antarctica"
  },
  {
    "city": "Novolazarevskaya Station",
    "lat": -71.30123475,
    "lng": -11.8502129,
    "country": "Antarctica"
  },
  {
    "city": "Neumayer Station III",
    "lat": -70.89039668,
    "lng": -7.838438004,
    "country": "Antarctica"
  },
  {
    "city": "Maitri Station",
    "lat": -70.7821796,
    "lng": 11.7304584,
    "country": "Antarctica"
  },
  {
    "city": "Halley Station",
    "lat": -76.09226319,
    "lng": -26.4741567,
    "country": "Antarctica"
  },
  {
    "city": "Belgrano Station",
    "lat": -77.86632078,
    "lng": -34.61668319,
    "country": "Antarctica"
  },
  {
    "city": "Camp Sobral",
    "lat": -81.17908472,
    "lng": -40.50153152,
    "country": "Antarctica"
  },
  {
    "city": "Aboa Station",
    "lat": -75.04959349,
    "lng": -13.41671106,
    "country": "Antarctica"
  },
  {
    "city": "San Martín Station",
    "lat": -68.1163216,
    "lng": -67.0999976,
    "country": "Antarctica"
  },
  {
    "city": "Gen. O'Higgins Station",
    "lat": -63.32841823,
    "lng": -57.88959352,
    "country": "Antarctica"
  },
  {
    "city": "Esperanza Station",
    "lat": -63.37532865,
    "lng": -57.02590151,
    "country": "Antarctica"
  },
  {
    "city": "Orcadas Station",
    "lat": -60.7328963,
    "lng": -44.73330082,
    "country": "Antarctica"
  },
  {
    "city": "Signy Research Station",
    "lat": -60.63130815,
    "lng": -45.60070332,
    "country": "Antarctica"
  },
  {
    "city": "Dumont d'Urville Station",
    "lat": -66.77505091,
    "lng": 139.9636836,
    "country": "Antarctica"
  },
  {
    "city": "Showa Station",
    "lat": -69.03039249,
    "lng": 39.7460831,
    "country": "Antarctica"
  },
  {
    "city": "Saint John's",
    "lat": 17.11803652,
    "lng": -61.85003382,
    "country": "Antigua and Barbuda"
  },
  {
    "city": "28 de Noviembre",
    "lat": -51.65003986,
    "lng": -72.30001612,
    "country": "Argentina"
  },
  {
    "city": "Gobernador Gregores",
    "lat": -48.76659829,
    "lng": -70.25001205,
    "country": "Argentina"
  },
  {
    "city": "Comondante Luis Piedrabuena",
    "lat": -49.97454865,
    "lng": -68.90347273,
    "country": "Argentina"
  },
  {
    "city": "Paso Rio Mayo",
    "lat": -45.68337563,
    "lng": -70.26657434,
    "country": "Argentina"
  },
  {
    "city": "Alto Rio Sanguer",
    "lat": -45.03328611,
    "lng": -70.83328394,
    "country": "Argentina"
  },
  {
    "city": "El Maiten",
    "lat": -42.05000568,
    "lng": -71.16662276,
    "country": "Argentina"
  },
  {
    "city": "Puerto Madryn",
    "lat": -42.77001341,
    "lng": -65.04001998,
    "country": "Argentina"
  },
  {
    "city": "Trelew",
    "lat": -43.25003579,
    "lng": -65.3299506,
    "country": "Argentina"
  },
  {
    "city": "Las Heras",
    "lat": -32.82503904,
    "lng": -68.80167668,
    "country": "Argentina"
  },
  {
    "city": "San Martin",
    "lat": -33.06998533,
    "lng": -68.49001612,
    "country": "Argentina"
  },
  {
    "city": "Uspallata",
    "lat": -32.59311522,
    "lng": -69.34598454,
    "country": "Argentina"
  },
  {
    "city": "Cutral Co",
    "lat": -38.94001463,
    "lng": -69.24002202,
    "country": "Argentina"
  },
  {
    "city": "Punta Alta",
    "lat": -38.87996662,
    "lng": -62.0799681,
    "country": "Argentina"
  },
  {
    "city": "San Nicolas",
    "lat": -33.33002114,
    "lng": -60.24000289,
    "country": "Argentina"
  },
  {
    "city": "Campana",
    "lat": -34.15999632,
    "lng": -58.95997766,
    "country": "Argentina"
  },
  {
    "city": "Chacabuco",
    "lat": -34.65004393,
    "lng": -60.48998763,
    "country": "Argentina"
  },
  {
    "city": "Mercedes",
    "lat": -34.66001748,
    "lng": -59.44002588,
    "country": "Argentina"
  },
  {
    "city": "Lincoln",
    "lat": -34.88000405,
    "lng": -61.53994938,
    "country": "Argentina"
  },
  {
    "city": "Chivilcoy",
    "lat": -34.89995115,
    "lng": -60.03998926,
    "country": "Argentina"
  },
  {
    "city": "Veinticinco de Mayo",
    "lat": -35.42999632,
    "lng": -60.17998071,
    "country": "Argentina"
  },
  {
    "city": "Nueve de Julio",
    "lat": -35.44596434,
    "lng": -60.88998906,
    "country": "Argentina"
  },
  {
    "city": "Dolores",
    "lat": -36.33004474,
    "lng": -57.68997766,
    "country": "Argentina"
  },
  {
    "city": "Pedro Luro",
    "lat": -39.48334064,
    "lng": -62.68331629,
    "country": "Argentina"
  },
  {
    "city": "Tres Arroyos",
    "lat": -38.3699719,
    "lng": -60.26994938,
    "country": "Argentina"
  },
  {
    "city": "Coronel Suarez",
    "lat": -37.46661619,
    "lng": -61.9166189,
    "country": "Argentina"
  },
  {
    "city": "Balcarce",
    "lat": -37.83331216,
    "lng": -58.24999516,
    "country": "Argentina"
  },
  {
    "city": "25 de Mayo",
    "lat": -37.80003253,
    "lng": -67.68329533,
    "country": "Argentina"
  },
  {
    "city": "General Roca",
    "lat": -39.01995807,
    "lng": -67.60996647,
    "country": "Argentina"
  },
  {
    "city": "Comallo",
    "lat": -41.03332355,
    "lng": -70.26657434,
    "country": "Argentina"
  },
  {
    "city": "Ingeniero Jacobacci",
    "lat": -41.30002562,
    "lng": -69.58330855,
    "country": "Argentina"
  },
  {
    "city": "General Conesa",
    "lat": -40.10004718,
    "lng": -64.43328699,
    "country": "Argentina"
  },
  {
    "city": "Choele Choel",
    "lat": -39.26660968,
    "lng": -65.68331405,
    "country": "Argentina"
  },
  {
    "city": "San Francisco",
    "lat": -31.43003375,
    "lng": -62.08996749,
    "country": "Argentina"
  },
  {
    "city": "Alta Gracia",
    "lat": -31.65999388,
    "lng": -64.4299797,
    "country": "Argentina"
  },
  {
    "city": "Villa Maria",
    "lat": -32.41002562,
    "lng": -63.26002527,
    "country": "Argentina"
  },
  {
    "city": "Bell Ville",
    "lat": -32.60003986,
    "lng": -62.67995732,
    "country": "Argentina"
  },
  {
    "city": "Villa Rumipal",
    "lat": -32.18332111,
    "lng": -64.48328394,
    "country": "Argentina"
  },
  {
    "city": "Villa Carlos Paz",
    "lat": -31.42000853,
    "lng": -64.50000126,
    "country": "Argentina"
  },
  {
    "city": "Chumbicha",
    "lat": -28.86662433,
    "lng": -66.23330632,
    "country": "Argentina"
  },
  {
    "city": "Tinogasta",
    "lat": -28.06662148,
    "lng": -67.56658411,
    "country": "Argentina"
  },
  {
    "city": "Abra Pampa",
    "lat": -22.7166638,
    "lng": -65.6999797,
    "country": "Argentina"
  },
  {
    "city": "Humahuaca",
    "lat": -23.19999347,
    "lng": -65.34994938,
    "country": "Argentina"
  },
  {
    "city": "Susques",
    "lat": -23.41667275,
    "lng": -66.4833169,
    "country": "Argentina"
  },
  {
    "city": "Chepes",
    "lat": -31.34998696,
    "lng": -66.5999506,
    "country": "Argentina"
  },
  {
    "city": "Yacuiba",
    "lat": -22.03003904,
    "lng": -63.69999841,
    "country": "Argentina"
  },
  {
    "city": "Tartagal",
    "lat": -22.55000731,
    "lng": -63.81001754,
    "country": "Argentina"
  },
  {
    "city": "Joaquin V. Gonzalez",
    "lat": -25.08334105,
    "lng": -64.18335392,
    "country": "Argentina"
  },
  {
    "city": "General Guemes",
    "lat": -24.6666223,
    "lng": -65.04996769,
    "country": "Argentina"
  },
  {
    "city": "Trancas",
    "lat": -26.21665688,
    "lng": -65.28331262,
    "country": "Argentina"
  },
  {
    "city": "Presidencia Roque Saenz Pena",
    "lat": -26.7900069,
    "lng": -60.45001591,
    "country": "Argentina"
  },
  {
    "city": "Pampa del Infierno",
    "lat": -26.51658689,
    "lng": -61.16658716,
    "country": "Argentina"
  },
  {
    "city": "Villa Angela",
    "lat": -27.58329181,
    "lng": -60.7166663,
    "country": "Argentina"
  },
  {
    "city": "Ingeniero Guillermo N. Juarez",
    "lat": -23.90000242,
    "lng": -61.84998214,
    "country": "Argentina"
  },
  {
    "city": "Comandante Fontana",
    "lat": -25.33329995,
    "lng": -59.68331852,
    "country": "Argentina"
  },
  {
    "city": "Doctor Pedro P. Pena",
    "lat": -22.47998574,
    "lng": -62.29998051,
    "country": "Argentina"
  },
  {
    "city": "San Lorenzo",
    "lat": -28.12000324,
    "lng": -58.76998926,
    "country": "Argentina"
  },
  {
    "city": "Corrientes",
    "lat": -27.48996417,
    "lng": -58.80998682,
    "country": "Argentina"
  },
  {
    "city": "Concepcion del Uruguay",
    "lat": -32.47999551,
    "lng": -58.23999577,
    "country": "Argentina"
  },
  {
    "city": "Victoria",
    "lat": -32.61001341,
    "lng": -60.17998071,
    "country": "Argentina"
  },
  {
    "city": "Gualeguay",
    "lat": -33.15003213,
    "lng": -59.34000615,
    "country": "Argentina"
  },
  {
    "city": "Parana",
    "lat": -31.73332273,
    "lng": -60.53334416,
    "country": "Argentina"
  },
  {
    "city": "Villa Constitucion",
    "lat": -33.23002724,
    "lng": -60.35002202,
    "country": "Argentina"
  },
  {
    "city": "Rafaela",
    "lat": -31.25004474,
    "lng": -61.49997766,
    "country": "Argentina"
  },
  {
    "city": "Eldorado",
    "lat": -26.20001707,
    "lng": -54.59998539,
    "country": "Argentina"
  },
  {
    "city": "Rodeo",
    "lat": -30.21558592,
    "lng": -69.1399506,
    "country": "Argentina"
  },
  {
    "city": "Las Plumas",
    "lat": -43.41627887,
    "lng": -67.24998845,
    "country": "Argentina"
  },
  {
    "city": "Gastre",
    "lat": -42.28296303,
    "lng": -69.23330408,
    "country": "Argentina"
  },
  {
    "city": "Telsen",
    "lat": -42.39959674,
    "lng": -66.95000676,
    "country": "Argentina"
  },
  {
    "city": "Malargue",
    "lat": -35.46611815,
    "lng": -69.58330855,
    "country": "Argentina"
  },
  {
    "city": "Tunuyan",
    "lat": -33.56618244,
    "lng": -69.01667647,
    "country": "Argentina"
  },
  {
    "city": "La Paz",
    "lat": -33.46613686,
    "lng": -67.54999597,
    "country": "Argentina"
  },
  {
    "city": "Chos Malal",
    "lat": -37.38295205,
    "lng": -70.26657434,
    "country": "Argentina"
  },
  {
    "city": "Las Lajas",
    "lat": -38.51626788,
    "lng": -70.36659408,
    "country": "Argentina"
  },
  {
    "city": "Zarate",
    "lat": -34.08956134,
    "lng": -59.04002446,
    "country": "Argentina"
  },
  {
    "city": "Carhue",
    "lat": -37.1828609,
    "lng": -62.73331323,
    "country": "Argentina"
  },
  {
    "city": "Darregueira",
    "lat": -37.69957355,
    "lng": -63.16659428,
    "country": "Argentina"
  },
  {
    "city": "Juarez",
    "lat": -37.66551878,
    "lng": -59.80002975,
    "country": "Argentina"
  },
  {
    "city": "Mar de Ajo",
    "lat": -36.71622272,
    "lng": -56.67660283,
    "country": "Argentina"
  },
  {
    "city": "Lobos",
    "lat": -35.184895,
    "lng": -59.09467228,
    "country": "Argentina"
  },
  {
    "city": "Chascomus",
    "lat": -35.56621539,
    "lng": -58.01662439,
    "country": "Argentina"
  },
  {
    "city": "Junin",
    "lat": -34.58456989,
    "lng": -60.95887374,
    "country": "Argentina"
  },
  {
    "city": "La Plata",
    "lat": -34.90961465,
    "lng": -57.95996118,
    "country": "Argentina"
  },
  {
    "city": "Pergamino",
    "lat": -33.89959878,
    "lng": -60.56998275,
    "country": "Argentina"
  },
  {
    "city": "Lujan",
    "lat": -34.57960895,
    "lng": -59.10999435,
    "country": "Argentina"
  },
  {
    "city": "Azul",
    "lat": -36.7796297,
    "lng": -59.86999964,
    "country": "Argentina"
  },
  {
    "city": "Villalonga",
    "lat": -39.88285114,
    "lng": -62.58332239,
    "country": "Argentina"
  },
  {
    "city": "Victorica",
    "lat": -36.21625324,
    "lng": -65.45002079,
    "country": "Argentina"
  },
  {
    "city": "General Pico",
    "lat": -35.65959471,
    "lng": -63.77001998,
    "country": "Argentina"
  },
  {
    "city": "San Antonio Oeste",
    "lat": -40.73287677,
    "lng": -64.93328231,
    "country": "Argentina"
  },
  {
    "city": "Sierra Colorado",
    "lat": -40.58286009,
    "lng": -67.79998071,
    "country": "Argentina"
  },
  {
    "city": "Mercedes",
    "lat": -33.68958576,
    "lng": -65.4699679,
    "country": "Argentina"
  },
  {
    "city": "Rio Tercero",
    "lat": -32.1796004,
    "lng": -64.12002446,
    "country": "Argentina"
  },
  {
    "city": "Belen",
    "lat": -27.64959267,
    "lng": -67.03328333,
    "country": "Argentina"
  },
  {
    "city": "Rinconada",
    "lat": -22.43290851,
    "lng": -66.16659204,
    "country": "Argentina"
  },
  {
    "city": "San Pedro",
    "lat": -24.21962116,
    "lng": -64.87000452,
    "country": "Argentina"
  },
  {
    "city": "Libertador General San Martin",
    "lat": -23.81954222,
    "lng": -64.78998356,
    "country": "Argentina"
  },
  {
    "city": "Chilecito",
    "lat": -29.16552081,
    "lng": -67.49999903,
    "country": "Argentina"
  },
  {
    "city": "Chamical",
    "lat": -30.34958291,
    "lng": -66.3166604,
    "country": "Argentina"
  },
  {
    "city": "Los Blancos",
    "lat": -23.59960732,
    "lng": -62.60003972,
    "country": "Argentina"
  },
  {
    "city": "Cafayate",
    "lat": -26.08291828,
    "lng": -65.96660425,
    "country": "Argentina"
  },
  {
    "city": "Cerrillos",
    "lat": -24.89963133,
    "lng": -65.48330042,
    "country": "Argentina"
  },
  {
    "city": "San Antonio de los Cobres",
    "lat": -24.18293089,
    "lng": -66.35001754,
    "country": "Argentina"
  },
  {
    "city": "Anatuya",
    "lat": -28.46613198,
    "lng": -62.83330713,
    "country": "Argentina"
  },
  {
    "city": "Frias",
    "lat": -28.64958331,
    "lng": -65.14998743,
    "country": "Argentina"
  },
  {
    "city": "Monte Quemado",
    "lat": -25.79962807,
    "lng": -62.86658675,
    "country": "Argentina"
  },
  {
    "city": "Juan Jose Castelli",
    "lat": -25.9495414,
    "lng": -60.61664657,
    "country": "Argentina"
  },
  {
    "city": "Charata",
    "lat": -27.21628579,
    "lng": -61.19999597,
    "country": "Argentina"
  },
  {
    "city": "Las Lomitas",
    "lat": -24.69959186,
    "lng": -60.60000676,
    "country": "Argentina"
  },
  {
    "city": "Mercedes",
    "lat": -29.1795768,
    "lng": -58.0799797,
    "country": "Argentina"
  },
  {
    "city": "Concordia",
    "lat": -31.38957111,
    "lng": -58.02998275,
    "country": "Argentina"
  },
  {
    "city": "Sunchales",
    "lat": -30.93290648,
    "lng": -61.56661442,
    "country": "Argentina"
  },
  {
    "city": "San Justo",
    "lat": -30.78288979,
    "lng": -60.58328943,
    "country": "Argentina"
  },
  {
    "city": "Vera",
    "lat": -29.4661743,
    "lng": -60.21659347,
    "country": "Argentina"
  },
  {
    "city": "Reconquista",
    "lat": -29.13952757,
    "lng": -59.65001306,
    "country": "Argentina"
  },
  {
    "city": "Venado Tuerto",
    "lat": -33.74958209,
    "lng": -61.97000065,
    "country": "Argentina"
  },
  {
    "city": "Esquel",
    "lat": -42.90003131,
    "lng": -71.31661361,
    "country": "Argentina"
  },
  {
    "city": "Zapala",
    "lat": -38.90001707,
    "lng": -70.06666406,
    "country": "Argentina"
  },
  {
    "city": "Olavarria",
    "lat": -36.90003579,
    "lng": -60.3299974,
    "country": "Argentina"
  },
  {
    "city": "Tandil",
    "lat": -37.32001015,
    "lng": -59.15004358,
    "country": "Argentina"
  },
  {
    "city": "Viedma",
    "lat": -40.79995278,
    "lng": -63.0000153,
    "country": "Argentina"
  },
  {
    "city": "San Luis",
    "lat": -33.29999713,
    "lng": -66.35001754,
    "country": "Argentina"
  },
  {
    "city": "Rio Cuarto",
    "lat": -33.13003335,
    "lng": -64.34998458,
    "country": "Argentina"
  },
  {
    "city": "San Salvador de Jujuy",
    "lat": -24.1833443,
    "lng": -65.30002995,
    "country": "Argentina"
  },
  {
    "city": "San Ramon de la Nueva Oran",
    "lat": -23.13999713,
    "lng": -64.32001225,
    "country": "Argentina"
  },
  {
    "city": "Goya",
    "lat": -29.13999266,
    "lng": -59.26998458,
    "country": "Argentina"
  },
  {
    "city": "Puerto San Julian",
    "lat": -49.30000242,
    "lng": -67.71665247,
    "country": "Argentina"
  },
  {
    "city": "Perito Moreno",
    "lat": -46.60001219,
    "lng": -70.93335535,
    "country": "Argentina"
  },
  {
    "city": "Rio Grande",
    "lat": -53.79144552,
    "lng": -67.6989952,
    "country": "Argentina"
  },
  {
    "city": "Ushuaia",
    "lat": -54.79000324,
    "lng": -68.31000126,
    "country": "Argentina"
  },
  {
    "city": "Sarmiento",
    "lat": -45.60002155,
    "lng": -69.08331323,
    "country": "Argentina"
  },
  {
    "city": "San Rafael",
    "lat": -34.60002114,
    "lng": -68.33333317,
    "country": "Argentina"
  },
  {
    "city": "Necochea",
    "lat": -38.55998615,
    "lng": -58.74999048,
    "country": "Argentina"
  },
  {
    "city": "Rio Colorado",
    "lat": -38.96657632,
    "lng": -64.08328251,
    "country": "Argentina"
  },
  {
    "city": "Catamarca",
    "lat": -28.47000771,
    "lng": -65.78000065,
    "country": "Argentina"
  },
  {
    "city": "La Rioja",
    "lat": -29.40995034,
    "lng": -66.84996118,
    "country": "Argentina"
  },
  {
    "city": "Santiago del Estero",
    "lat": -27.78333128,
    "lng": -64.26665633,
    "country": "Argentina"
  },
  {
    "city": "Resistencia",
    "lat": -27.45999184,
    "lng": -58.99002751,
    "country": "Argentina"
  },
  {
    "city": "Gualeguaychu",
    "lat": -33.02001422,
    "lng": -58.52000452,
    "country": "Argentina"
  },
  {
    "city": "El Calafate",
    "lat": -50.33332436,
    "lng": -72.30001612,
    "country": "Argentina"
  },
  {
    "city": "San Juan",
    "lat": -31.55002643,
    "lng": -68.51998845,
    "country": "Argentina"
  },
  {
    "city": "Rawson",
    "lat": -43.3000069,
    "lng": -65.09999048,
    "country": "Argentina"
  },
  {
    "city": "Neuquen",
    "lat": -38.95003986,
    "lng": -68.05999068,
    "country": "Argentina"
  },
  {
    "city": "Santa Rosa",
    "lat": -36.6200012,
    "lng": -64.29998763,
    "country": "Argentina"
  },
  {
    "city": "San Carlos de Bariloche",
    "lat": -41.14995726,
    "lng": -71.29999964,
    "country": "Argentina"
  },
  {
    "city": "Salta",
    "lat": -24.78335936,
    "lng": -65.41663782,
    "country": "Argentina"
  },
  {
    "city": "Tucumán",
    "lat": -26.81600014,
    "lng": -65.21662419,
    "country": "Argentina"
  },
  {
    "city": "Formosa",
    "lat": -26.17283527,
    "lng": -58.1828158,
    "country": "Argentina"
  },
  {
    "city": "Santa Fe",
    "lat": -31.62387205,
    "lng": -60.69000126,
    "country": "Argentina"
  },
  {
    "city": "Rosario",
    "lat": -32.95112954,
    "lng": -60.66630762,
    "country": "Argentina"
  },
  {
    "city": "Puerto Deseado",
    "lat": -47.75001951,
    "lng": -65.89996749,
    "country": "Argentina"
  },
  {
    "city": "Rio Gallegos",
    "lat": -51.63329669,
    "lng": -69.21658675,
    "country": "Argentina"
  },
  {
    "city": "Comodoro Rivadavia",
    "lat": -45.87003091,
    "lng": -67.49999903,
    "country": "Argentina"
  },
  {
    "city": "Mendoza",
    "lat": -32.88333006,
    "lng": -68.81661117,
    "country": "Argentina"
  },
  {
    "city": "Bahia Blanca",
    "lat": -38.74002684,
    "lng": -62.2650214,
    "country": "Argentina"
  },
  {
    "city": "Mar del Plata",
    "lat": -38.00002033,
    "lng": -57.57998438,
    "country": "Argentina"
  },
  {
    "city": "Córdoba",
    "lat": -31.39995807,
    "lng": -64.18229456,
    "country": "Argentina"
  },
  {
    "city": "Posadas",
    "lat": -27.3578321,
    "lng": -55.88510735,
    "country": "Argentina"
  },
  {
    "city": "Buenos Aires",
    "lat": -34.60250161,
    "lng": -58.39753137,
    "country": "Argentina"
  },
  {
    "city": "Ashtarak",
    "lat": 40.3016667,
    "lng": 44.3591667,
    "country": "Armenia"
  },
  {
    "city": "Ijevan",
    "lat": 40.8755556,
    "lng": 45.1491667,
    "country": "Armenia"
  },
  {
    "city": "Artashat",
    "lat": 39.9538889,
    "lng": 44.5505556,
    "country": "Armenia"
  },
  {
    "city": "Gavarr",
    "lat": 40.3588889,
    "lng": 45.1266667,
    "country": "Armenia"
  },
  {
    "city": "Yeghegnadzor",
    "lat": 39.7611111,
    "lng": 45.3333333,
    "country": "Armenia"
  },
  {
    "city": "Gyumri",
    "lat": 40.78943402,
    "lng": 43.84749385,
    "country": "Armenia"
  },
  {
    "city": "Vanadzor",
    "lat": 40.81276593,
    "lng": 44.48828162,
    "country": "Armenia"
  },
  {
    "city": "Yerevan",
    "lat": 40.18115074,
    "lng": 44.51355139,
    "country": "Armenia"
  },
  {
    "city": "Oranjestad",
    "lat": 12.53038373,
    "lng": -70.02899195,
    "country": "Aruba"
  },
  {
    "city": "Central Coast",
    "lat": -33.42004148,
    "lng": 151.3000048,
    "country": "Australia"
  },
  {
    "city": "Sunshine Coast",
    "lat": -26.67998777,
    "lng": 153.0500272,
    "country": "Australia"
  },
  {
    "city": "Bourke",
    "lat": -30.1,
    "lng": 145.9333333,
    "country": "Australia"
  },
  {
    "city": "Pine Creek",
    "lat": -13.81617348,
    "lng": 131.816698,
    "country": "Australia"
  },
  {
    "city": "Adelaide River",
    "lat": -13.2495414,
    "lng": 131.0999975,
    "country": "Australia"
  },
  {
    "city": "McMinns Lagoon",
    "lat": -12.53289264,
    "lng": 131.0500264,
    "country": "Australia"
  },
  {
    "city": "Newcastle Waters",
    "lat": -17.55279295,
    "lng": 133.4672432,
    "country": "Australia"
  },
  {
    "city": "Ravensthorpe",
    "lat": -33.58287392,
    "lng": 120.0333345,
    "country": "Australia"
  },
  {
    "city": "Wagin",
    "lat": -33.29958372,
    "lng": 117.3499841,
    "country": "Australia"
  },
  {
    "city": "Roebourne",
    "lat": -20.7829317,
    "lng": 117.1333048,
    "country": "Australia"
  },
  {
    "city": "Pannawonica",
    "lat": -21.63657469,
    "lng": 116.3250337,
    "country": "Australia"
  },
  {
    "city": "Tom Price",
    "lat": -22.69346108,
    "lng": 117.7930578,
    "country": "Australia"
  },
  {
    "city": "Kalbarri",
    "lat": -27.66618081,
    "lng": 114.1666642,
    "country": "Australia"
  },
  {
    "city": "Mount Magnet",
    "lat": -28.06620807,
    "lng": 117.8166739,
    "country": "Australia"
  },
  {
    "city": "Morawa",
    "lat": -29.21626707,
    "lng": 116.0000406,
    "country": "Australia"
  },
  {
    "city": "Port Denison",
    "lat": -29.28282632,
    "lng": 114.9166442,
    "country": "Australia"
  },
  {
    "city": "Merredin",
    "lat": -31.48284707,
    "lng": 118.2666723,
    "country": "Australia"
  },
  {
    "city": "Mount Barker",
    "lat": -34.632784,
    "lng": 117.6666056,
    "country": "Australia"
  },
  {
    "city": "Katanning",
    "lat": -33.69955931,
    "lng": 117.5500752,
    "country": "Australia"
  },
  {
    "city": "Narrogin",
    "lat": -32.93288776,
    "lng": 117.1666361,
    "country": "Australia"
  },
  {
    "city": "Gingin",
    "lat": -31.34957355,
    "lng": 115.9000468,
    "country": "Australia"
  },
  {
    "city": "Bunbury",
    "lat": -33.34428384,
    "lng": 115.6502429,
    "country": "Australia"
  },
  {
    "city": "Kwinana",
    "lat": -32.23939004,
    "lng": 115.7702356,
    "country": "Australia"
  },
  {
    "city": "Southern Cross",
    "lat": -31.216145,
    "lng": 119.3166857,
    "country": "Australia"
  },
  {
    "city": "Kaltukatjara",
    "lat": -25.78841429,
    "lng": 128.9973352,
    "country": "Australia"
  },
  {
    "city": "Queanbeyan",
    "lat": -35.3546004,
    "lng": 149.2113468,
    "country": "Australia"
  },
  {
    "city": "Tweed Heads",
    "lat": -28.1825834,
    "lng": 153.5466377,
    "country": "Australia"
  },
  {
    "city": "Ivanhoe",
    "lat": -32.89960814,
    "lng": 144.3000187,
    "country": "Australia"
  },
  {
    "city": "Wilcannia",
    "lat": -31.56620115,
    "lng": 143.3833304,
    "country": "Australia"
  },
  {
    "city": "Merimbula",
    "lat": -36.89962238,
    "lng": 149.9000386,
    "country": "Australia"
  },
  {
    "city": "Echuca",
    "lat": -36.12959186,
    "lng": 144.750017,
    "country": "Australia"
  },
  {
    "city": "Deniliquin",
    "lat": -35.5295768,
    "lng": 144.9500048,
    "country": "Australia"
  },
  {
    "city": "Nowra",
    "lat": -34.88284625,
    "lng": 150.6000476,
    "country": "Australia"
  },
  {
    "city": "Ulladulla",
    "lat": -35.34953611,
    "lng": 150.4700297,
    "country": "Australia"
  },
  {
    "city": "Batemans Bay",
    "lat": -35.68961871,
    "lng": 150.2073067,
    "country": "Australia"
  },
  {
    "city": "Cooma",
    "lat": -36.23955931,
    "lng": 149.1200345,
    "country": "Australia"
  },
  {
    "city": "Tumut",
    "lat": -35.30959023,
    "lng": 148.2200378,
    "country": "Australia"
  },
  {
    "city": "Leeton",
    "lat": -34.54493406,
    "lng": 146.3973067,
    "country": "Australia"
  },
  {
    "city": "Young",
    "lat": -34.30959959,
    "lng": 148.2900077,
    "country": "Australia"
  },
  {
    "city": "Cowra",
    "lat": -33.82962889,
    "lng": 148.6800097,
    "country": "Australia"
  },
  {
    "city": "Forbes",
    "lat": -33.38960407,
    "lng": 148.0199983,
    "country": "Australia"
  },
  {
    "city": "Goulburn",
    "lat": -34.74957273,
    "lng": 149.7101794,
    "country": "Australia"
  },
  {
    "city": "Kiama",
    "lat": -34.70957518,
    "lng": 150.8400329,
    "country": "Australia"
  },
  {
    "city": "Katoomba",
    "lat": -33.70694904,
    "lng": 150.320013,
    "country": "Australia"
  },
  {
    "city": "Richmond",
    "lat": -33.59951373,
    "lng": 150.7399873,
    "country": "Australia"
  },
  {
    "city": "Lithgow",
    "lat": -33.49610919,
    "lng": 150.152788,
    "country": "Australia"
  },
  {
    "city": "Parkes",
    "lat": -33.12956826,
    "lng": 148.170015,
    "country": "Australia"
  },
  {
    "city": "Bathurst",
    "lat": -33.41962807,
    "lng": 149.5700329,
    "country": "Australia"
  },
  {
    "city": "Maitland",
    "lat": -32.72096271,
    "lng": 151.555028,
    "country": "Australia"
  },
  {
    "city": "Singleton",
    "lat": -32.56949909,
    "lng": 151.1600134,
    "country": "Australia"
  },
  {
    "city": "Mudgee",
    "lat": -32.58960122,
    "lng": 149.5801098,
    "country": "Australia"
  },
  {
    "city": "Muswellbrook",
    "lat": -32.26956907,
    "lng": 150.890004,
    "country": "Australia"
  },
  {
    "city": "Taree",
    "lat": -31.89760211,
    "lng": 152.4618461,
    "country": "Australia"
  },
  {
    "city": "Kempsey",
    "lat": -31.08736733,
    "lng": 152.8220308,
    "country": "Australia"
  },
  {
    "city": "Gunnedah",
    "lat": -30.9870117,
    "lng": 150.2622904,
    "country": "Australia"
  },
  {
    "city": "Coffs Harbour",
    "lat": -30.3070532,
    "lng": 153.1122973,
    "country": "Australia"
  },
  {
    "city": "Narrabri",
    "lat": -30.33190957,
    "lng": 149.7874357,
    "country": "Australia"
  },
  {
    "city": "Inverell",
    "lat": -29.7667761,
    "lng": 151.1125744,
    "country": "Australia"
  },
  {
    "city": "Yamba",
    "lat": -29.42299136,
    "lng": 153.353312,
    "country": "Australia"
  },
  {
    "city": "Ballina",
    "lat": -28.86135333,
    "lng": 153.5679801,
    "country": "Australia"
  },
  {
    "city": "Wagga Wagga",
    "lat": -35.12215981,
    "lng": 147.3399882,
    "country": "Australia"
  },
  {
    "city": "Scone",
    "lat": -32.07960651,
    "lng": 150.8501098,
    "country": "Australia"
  },
  {
    "city": "Byron Bay",
    "lat": -28.65650796,
    "lng": 153.6128869,
    "country": "Australia"
  },
  {
    "city": "Berri",
    "lat": -34.28293455,
    "lng": 140.6000378,
    "country": "Australia"
  },
  {
    "city": "Peterborough",
    "lat": -32.96616738,
    "lng": 138.8333239,
    "country": "Australia"
  },
  {
    "city": "Wallaroo",
    "lat": -33.9328784,
    "lng": 137.6332938,
    "country": "Australia"
  },
  {
    "city": "Clare",
    "lat": -33.8328845,
    "lng": 138.6000048,
    "country": "Australia"
  },
  {
    "city": "Meningie",
    "lat": -35.69954059,
    "lng": 139.3333451,
    "country": "Australia"
  },
  {
    "city": "Kingston South East",
    "lat": -36.83280475,
    "lng": 139.8500577,
    "country": "Australia"
  },
  {
    "city": "Bordertown",
    "lat": -36.31619546,
    "lng": 140.7666426,
    "country": "Australia"
  },
  {
    "city": "Penola",
    "lat": -37.38295205,
    "lng": 140.8166654,
    "country": "Australia"
  },
  {
    "city": "Kingoonya",
    "lat": -30.89957518,
    "lng": 135.2999996,
    "country": "Australia"
  },
  {
    "city": "Kimba",
    "lat": -33.14961871,
    "lng": 136.4333671,
    "country": "Australia"
  },
  {
    "city": "Streaky Bay",
    "lat": -32.81187176,
    "lng": 134.2149296,
    "country": "Australia"
  },
  {
    "city": "Cowell",
    "lat": -33.68286782,
    "lng": 136.9166451,
    "country": "Australia"
  },
  {
    "city": "Tumby Bay",
    "lat": -34.38292845,
    "lng": 136.0833109,
    "country": "Australia"
  },
  {
    "city": "Andamooka",
    "lat": -30.43097329,
    "lng": 137.1655704,
    "country": "Australia"
  },
  {
    "city": "Woomera",
    "lat": -31.14958576,
    "lng": 136.8000114,
    "country": "Australia"
  },
  {
    "city": "Port Pirie",
    "lat": -33.19106321,
    "lng": 137.9900162,
    "country": "Australia"
  },
  {
    "city": "Gawler",
    "lat": -34.60735919,
    "lng": 138.7263537,
    "country": "Australia"
  },
  {
    "city": "Murray Bridge",
    "lat": -35.12960122,
    "lng": 139.2600162,
    "country": "Australia"
  },
  {
    "city": "Victor Harbor",
    "lat": -35.55960081,
    "lng": 138.6173164,
    "country": "Australia"
  },
  {
    "city": "Hamilton",
    "lat": -37.73119953,
    "lng": 142.0234135,
    "country": "Australia"
  },
  {
    "city": "Ouyen",
    "lat": -35.06619424,
    "lng": 142.3166772,
    "country": "Australia"
  },
  {
    "city": "Colac",
    "lat": -38.33953449,
    "lng": 143.5800109,
    "country": "Australia"
  },
  {
    "city": "Stawell",
    "lat": -37.05961261,
    "lng": 142.7600093,
    "country": "Australia"
  },
  {
    "city": "Horsham",
    "lat": -36.70960814,
    "lng": 142.1900183,
    "country": "Australia"
  },
  {
    "city": "Ararat",
    "lat": -37.27954751,
    "lng": 142.9099743,
    "country": "Australia"
  },
  {
    "city": "Maryborough",
    "lat": -37.04958738,
    "lng": 143.729976,
    "country": "Australia"
  },
  {
    "city": "Bairnsdale",
    "lat": -37.82959145,
    "lng": 147.6099975,
    "country": "Australia"
  },
  {
    "city": "Sale",
    "lat": -38.10957436,
    "lng": 147.0600052,
    "country": "Australia"
  },
  {
    "city": "Traralgon",
    "lat": -38.19959471,
    "lng": 146.5300118,
    "country": "Australia"
  },
  {
    "city": "Wonthaggi",
    "lat": -38.60949217,
    "lng": 145.5900175,
    "country": "Australia"
  },
  {
    "city": "Cranbourne",
    "lat": -38.09960081,
    "lng": 145.2833695,
    "country": "Australia"
  },
  {
    "city": "Ballarat",
    "lat": -37.55958209,
    "lng": 143.8400468,
    "country": "Australia"
  },
  {
    "city": "Melton",
    "lat": -37.68954832,
    "lng": 144.570028,
    "country": "Australia"
  },
  {
    "city": "Seymour",
    "lat": -37.03423948,
    "lng": 145.1273067,
    "country": "Australia"
  },
  {
    "city": "Shepparton",
    "lat": -36.37458982,
    "lng": 145.3913732,
    "country": "Australia"
  },
  {
    "city": "Cobram",
    "lat": -35.91963051,
    "lng": 145.6500138,
    "country": "Australia"
  },
  {
    "city": "Swan Hill",
    "lat": -35.33961424,
    "lng": 143.5400134,
    "country": "Australia"
  },
  {
    "city": "Sunbury",
    "lat": -37.56960732,
    "lng": 144.7100195,
    "country": "Australia"
  },
  {
    "city": "Proserpine",
    "lat": -20.41623574,
    "lng": 148.5834781,
    "country": "Australia"
  },
  {
    "city": "Theodore",
    "lat": -24.94949909,
    "lng": 150.0833349,
    "country": "Australia"
  },
  {
    "city": "Eidsvold",
    "lat": -25.36621784,
    "lng": 151.1333483,
    "country": "Australia"
  },
  {
    "city": "Barcaldine",
    "lat": -23.56617267,
    "lng": 145.2833695,
    "country": "Australia"
  },
  {
    "city": "Winton",
    "lat": -22.39962889,
    "lng": 143.0332743,
    "country": "Australia"
  },
  {
    "city": "Longreach",
    "lat": -23.44959064,
    "lng": 144.2500476,
    "country": "Australia"
  },
  {
    "city": "Caboolture",
    "lat": -27.08296059,
    "lng": 152.9499816,
    "country": "Australia"
  },
  {
    "city": "Warwick",
    "lat": -28.22924721,
    "lng": 152.0203226,
    "country": "Australia"
  },
  {
    "city": "Kingaroy",
    "lat": -26.53896279,
    "lng": 151.840592,
    "country": "Australia"
  },
  {
    "city": "Dalby",
    "lat": -27.19385822,
    "lng": 151.2657434,
    "country": "Australia"
  },
  {
    "city": "Bongaree",
    "lat": -27.07872313,
    "lng": 153.1508996,
    "country": "Australia"
  },
  {
    "city": "Gympie",
    "lat": -26.18859658,
    "lng": 152.6709289,
    "country": "Australia"
  },
  {
    "city": "Ingham",
    "lat": -18.64957355,
    "lng": 146.1666231,
    "country": "Australia"
  },
  {
    "city": "Birdsville",
    "lat": -25.89962197,
    "lng": 139.3666247,
    "country": "Australia"
  },
  {
    "city": "Bedourie",
    "lat": -24.34958738,
    "lng": 139.4666186,
    "country": "Australia"
  },
  {
    "city": "Boulia",
    "lat": -22.89959837,
    "lng": 139.9000288,
    "country": "Australia"
  },
  {
    "city": "Richmond",
    "lat": -20.71626911,
    "lng": 143.1333199,
    "country": "Australia"
  },
  {
    "city": "Burketown",
    "lat": -17.71609048,
    "lng": 139.5666125,
    "country": "Australia"
  },
  {
    "city": "Hervey Bay",
    "lat": -25.28870319,
    "lng": 152.8409444,
    "country": "Australia"
  },
  {
    "city": "Biloela",
    "lat": -24.39356403,
    "lng": 150.4960746,
    "country": "Australia"
  },
  {
    "city": "Yeppoon",
    "lat": -23.13291746,
    "lng": 150.7567305,
    "country": "Australia"
  },
  {
    "city": "Emerald",
    "lat": -23.51222247,
    "lng": 148.1673278,
    "country": "Australia"
  },
  {
    "city": "Moranbah",
    "lat": -22.00156533,
    "lng": 148.0380334,
    "country": "Australia"
  },
  {
    "city": "Charters Towers",
    "lat": -20.08090737,
    "lng": 146.2587105,
    "country": "Australia"
  },
  {
    "city": "Ayr",
    "lat": -19.57024087,
    "lng": 147.3994677,
    "country": "Australia"
  },
  {
    "city": "Atherton",
    "lat": -17.27027789,
    "lng": 145.469353,
    "country": "Australia"
  },
  {
    "city": "Port Douglas",
    "lat": -16.48458812,
    "lng": 145.4587219,
    "country": "Australia"
  },
  {
    "city": "Smithton",
    "lat": -40.83292234,
    "lng": 145.1166613,
    "country": "Australia"
  },
  {
    "city": "Scottsdale",
    "lat": -41.14949217,
    "lng": 147.5166699,
    "country": "Australia"
  },
  {
    "city": "Bicheno",
    "lat": -41.87838825,
    "lng": 148.2886124,
    "country": "Australia"
  },
  {
    "city": "Oatlands",
    "lat": -42.29960285,
    "lng": 147.3666015,
    "country": "Australia"
  },
  {
    "city": "Queenstown",
    "lat": -42.08292356,
    "lng": 145.5500199,
    "country": "Australia"
  },
  {
    "city": "Kingston",
    "lat": -42.99113686,
    "lng": 147.3084139,
    "country": "Australia"
  },
  {
    "city": "Tennant Creek",
    "lat": -19.65002928,
    "lng": 134.200015,
    "country": "Australia"
  },
  {
    "city": "Yulara",
    "lat": -25.24054075,
    "lng": 130.9888932,
    "country": "Australia"
  },
  {
    "city": "Erldunda",
    "lat": -25.23330605,
    "lng": 133.1999727,
    "country": "Australia"
  },
  {
    "city": "Norseman",
    "lat": -32.20001259,
    "lng": 121.7666137,
    "country": "Australia"
  },
  {
    "city": "Halls Creek",
    "lat": -18.26670286,
    "lng": 127.7667126,
    "country": "Australia"
  },
  {
    "city": "Kununurra",
    "lat": -15.76659707,
    "lng": 128.7333203,
    "country": "Australia"
  },
  {
    "city": "Derby",
    "lat": -17.29999184,
    "lng": 123.9666345,
    "country": "Australia"
  },
  {
    "city": "Onslow",
    "lat": -21.65759354,
    "lng": 115.0962959,
    "country": "Australia"
  },
  {
    "city": "Exmouth",
    "lat": -21.93109987,
    "lng": 114.1233469,
    "country": "Australia"
  },
  {
    "city": "Carnarvon",
    "lat": -24.89983803,
    "lng": 113.6501066,
    "country": "Australia"
  },
  {
    "city": "Newman",
    "lat": -23.36659829,
    "lng": 119.7333011,
    "country": "Australia"
  },
  {
    "city": "Meekatharra",
    "lat": -26.59999266,
    "lng": 118.4832999,
    "country": "Australia"
  },
  {
    "city": "Three Springs",
    "lat": -29.53330198,
    "lng": 115.7499784,
    "country": "Australia"
  },
  {
    "city": "Manjimup",
    "lat": -34.23332518,
    "lng": 116.1500057,
    "country": "Australia"
  },
  {
    "city": "Northam",
    "lat": -31.65658323,
    "lng": 116.6533858,
    "country": "Australia"
  },
  {
    "city": "Esperance",
    "lat": -33.857307,
    "lng": 121.8888973,
    "country": "Australia"
  },
  {
    "city": "Leonara",
    "lat": -28.88150714,
    "lng": 121.3280358,
    "country": "Australia"
  },
  {
    "city": "Laverton",
    "lat": -28.62700071,
    "lng": 122.4040425,
    "country": "Australia"
  },
  {
    "city": "Wyndham",
    "lat": -15.37395953,
    "lng": 128.3600614,
    "country": "Australia"
  },
  {
    "city": "Albury",
    "lat": -36.06003538,
    "lng": 146.9200138,
    "country": "Australia"
  },
  {
    "city": "Forster-Tuncurry",
    "lat": -32.19313963,
    "lng": 152.5266483,
    "country": "Australia"
  },
  {
    "city": "Port Macquarie",
    "lat": -31.44501992,
    "lng": 152.9186657,
    "country": "Australia"
  },
  {
    "city": "Tamworth",
    "lat": -31.10261188,
    "lng": 150.9171342,
    "country": "Australia"
  },
  {
    "city": "Grafton",
    "lat": -29.71199909,
    "lng": 152.9376827,
    "country": "Australia"
  },
  {
    "city": "Moree",
    "lat": -29.469895,
    "lng": 149.8300687,
    "country": "Australia"
  },
  {
    "city": "Goondiwindi",
    "lat": -28.55480874,
    "lng": 150.325284,
    "country": "Australia"
  },
  {
    "city": "Lismore",
    "lat": -28.81665322,
    "lng": 153.2931132,
    "country": "Australia"
  },
  {
    "city": "Wollongong",
    "lat": -34.41538125,
    "lng": 150.890004,
    "country": "Australia"
  },
  {
    "city": "Ceduna",
    "lat": -32.09913464,
    "lng": 133.6622674,
    "country": "Australia"
  },
  {
    "city": "Mount Gambier",
    "lat": -37.83134845,
    "lng": 140.7650406,
    "country": "Australia"
  },
  {
    "city": "Port Augusta",
    "lat": -32.49002073,
    "lng": 137.7700297,
    "country": "Australia"
  },
  {
    "city": "Warrnambool",
    "lat": -38.37999713,
    "lng": 142.4700012,
    "country": "Australia"
  },
  {
    "city": "Mildura",
    "lat": -34.18500771,
    "lng": 142.1513643,
    "country": "Australia"
  },
  {
    "city": "Geelong",
    "lat": -38.16749505,
    "lng": 144.3956335,
    "country": "Australia"
  },
  {
    "city": "Camooweal",
    "lat": -19.91673134,
    "lng": 138.1166752,
    "country": "Australia"
  },
  {
    "city": "Quilpie",
    "lat": -26.61663247,
    "lng": 144.2500476,
    "country": "Australia"
  },
  {
    "city": "Charleville",
    "lat": -26.40000486,
    "lng": 146.2500288,
    "country": "Australia"
  },
  {
    "city": "Hughenden",
    "lat": -20.85000771,
    "lng": 144.2000248,
    "country": "Australia"
  },
  {
    "city": "Caloundra",
    "lat": -26.80003213,
    "lng": 153.1333296,
    "country": "Australia"
  },
  {
    "city": "Roma",
    "lat": -26.55937498,
    "lng": 148.7907006,
    "country": "Australia"
  },
  {
    "city": "Toowoomba",
    "lat": -27.56453327,
    "lng": 151.9555204,
    "country": "Australia"
  },
  {
    "city": "Georgetown",
    "lat": -18.30003416,
    "lng": 143.5332955,
    "country": "Australia"
  },
  {
    "city": "Thargomindah",
    "lat": -27.99995888,
    "lng": 143.816689,
    "country": "Australia"
  },
  {
    "city": "Weipa",
    "lat": -12.66663125,
    "lng": 141.8666272,
    "country": "Australia"
  },
  {
    "city": "Karumba",
    "lat": -17.48333982,
    "lng": 140.8334086,
    "country": "Australia"
  },
  {
    "city": "Cloncurry",
    "lat": -20.69999103,
    "lng": 140.4999922,
    "country": "Australia"
  },
  {
    "city": "Maryborough",
    "lat": -25.54910073,
    "lng": 152.7209,
    "country": "Australia"
  },
  {
    "city": "Bundaberg",
    "lat": -24.87906411,
    "lng": 152.3508968,
    "country": "Australia"
  },
  {
    "city": "Gladstone",
    "lat": -23.8533386,
    "lng": 151.2467264,
    "country": "Australia"
  },
  {
    "city": "Bowen",
    "lat": -20.00132566,
    "lng": 148.208669,
    "country": "Australia"
  },
  {
    "city": "Innisfail",
    "lat": -17.53134723,
    "lng": 146.0386722,
    "country": "Australia"
  },
  {
    "city": "Mackay",
    "lat": -21.14389158,
    "lng": 149.1500069,
    "country": "Australia"
  },
  {
    "city": "Burnie",
    "lat": -41.06660317,
    "lng": 145.9166642,
    "country": "Australia"
  },
  {
    "city": "Launceston",
    "lat": -41.44983559,
    "lng": 147.1301818,
    "country": "Australia"
  },
  {
    "city": "Katherine",
    "lat": -14.46662474,
    "lng": 132.266593,
    "country": "Australia"
  },
  {
    "city": "Busselton",
    "lat": -33.65640949,
    "lng": 115.3486592,
    "country": "Australia"
  },
  {
    "city": "Mandurah",
    "lat": -32.52348259,
    "lng": 115.7470567,
    "country": "Australia"
  },
  {
    "city": "Broome",
    "lat": -17.96177069,
    "lng": 122.2307681,
    "country": "Australia"
  },
  {
    "city": "Kalgoorlie",
    "lat": -30.73539915,
    "lng": 121.4600175,
    "country": "Australia"
  },
  {
    "city": "Albany",
    "lat": -35.0169466,
    "lng": 117.8916048,
    "country": "Australia"
  },
  {
    "city": "Port Hedland",
    "lat": -20.31040241,
    "lng": 118.6060315,
    "country": "Australia"
  },
  {
    "city": "Karratha",
    "lat": -20.73037677,
    "lng": 116.8700134,
    "country": "Australia"
  },
  {
    "city": "Geraldton",
    "lat": -28.76663043,
    "lng": 114.5999711,
    "country": "Australia"
  },
  {
    "city": "Griffith",
    "lat": -34.29001422,
    "lng": 146.0400158,
    "country": "Australia"
  },
  {
    "city": "Orange",
    "lat": -33.27999835,
    "lng": 149.0999841,
    "country": "Australia"
  },
  {
    "city": "Dubbo",
    "lat": -32.25995726,
    "lng": 148.5973274,
    "country": "Australia"
  },
  {
    "city": "Armidale",
    "lat": -30.51231199,
    "lng": 151.667476,
    "country": "Australia"
  },
  {
    "city": "Broken Hill",
    "lat": -31.94995034,
    "lng": 141.4331136,
    "country": "Australia"
  },
  {
    "city": "Port Lincoln",
    "lat": -34.73324298,
    "lng": 135.86658,
    "country": "Australia"
  },
  {
    "city": "Whyalla",
    "lat": -33.02502684,
    "lng": 137.5614119,
    "country": "Australia"
  },
  {
    "city": "Portland",
    "lat": -38.33999957,
    "lng": 141.5900032,
    "country": "Australia"
  },
  {
    "city": "Bendigo",
    "lat": -36.75999266,
    "lng": 144.2800199,
    "country": "Australia"
  },
  {
    "city": "Wangaratta",
    "lat": -36.36001707,
    "lng": 146.3,
    "country": "Australia"
  },
  {
    "city": "Windorah",
    "lat": -25.43324217,
    "lng": 142.6501969,
    "country": "Australia"
  },
  {
    "city": "Mount Isa",
    "lat": -20.72386554,
    "lng": 139.490028,
    "country": "Australia"
  },
  {
    "city": "Rockhampton",
    "lat": -23.36391111,
    "lng": 150.5200008,
    "country": "Australia"
  },
  {
    "city": "Cairns",
    "lat": -16.88783986,
    "lng": 145.7633309,
    "country": "Australia"
  },
  {
    "city": "Gold Coast",
    "lat": -28.08150429,
    "lng": 153.4482458,
    "country": "Australia"
  },
  {
    "city": "Devonport",
    "lat": -41.19266757,
    "lng": 146.3311017,
    "country": "Australia"
  },
  {
    "city": "Darwin",
    "lat": -12.42535398,
    "lng": 130.8500386,
    "country": "Australia"
  },
  {
    "city": "Alice Springs",
    "lat": -23.70099648,
    "lng": 133.8800345,
    "country": "Australia"
  },
  {
    "city": "Canberra",
    "lat": -35.28302855,
    "lng": 149.1290262,
    "country": "Australia"
  },
  {
    "city": "Newcastle",
    "lat": -32.84534788,
    "lng": 151.8150122,
    "country": "Australia"
  },
  {
    "city": "Adelaide",
    "lat": -34.93498777,
    "lng": 138.6000048,
    "country": "Australia"
  },
  {
    "city": "Townsville",
    "lat": -19.24995034,
    "lng": 146.7699971,
    "country": "Australia"
  },
  {
    "city": "Brisbane",
    "lat": -27.45503091,
    "lng": 153.0350927,
    "country": "Australia"
  },
  {
    "city": "Hobart",
    "lat": -42.85000853,
    "lng": 147.2950297,
    "country": "Australia"
  },
  {
    "city": "Perth",
    "lat": -31.95501463,
    "lng": 115.8399987,
    "country": "Australia"
  },
  {
    "city": "Melbourne",
    "lat": -37.82003131,
    "lng": 144.9750162,
    "country": "Australia"
  },
  {
    "city": "Sydney",
    "lat": -33.92001097,
    "lng": 151.1851798,
    "country": "Australia"
  },
  {
    "city": "Bregenz",
    "lat": 47.51669707,
    "lng": 9.766701588,
    "country": "Austria"
  },
  {
    "city": "Eisenstadt",
    "lat": 47.83329908,
    "lng": 16.53329747,
    "country": "Austria"
  },
  {
    "city": "Wiener Neustadt",
    "lat": 47.81598187,
    "lng": 16.24995357,
    "country": "Austria"
  },
  {
    "city": "Graz",
    "lat": 47.0777582,
    "lng": 15.41000484,
    "country": "Austria"
  },
  {
    "city": "Klagenfurt",
    "lat": 46.62034426,
    "lng": 14.3100203,
    "country": "Austria"
  },
  {
    "city": "Linz",
    "lat": 48.31923281,
    "lng": 14.28878129,
    "country": "Austria"
  },
  {
    "city": "Passau",
    "lat": 48.56704714,
    "lng": 13.46660925,
    "country": "Austria"
  },
  {
    "city": "Salzburg",
    "lat": 47.81047833,
    "lng": 13.0400203,
    "country": "Austria"
  },
  {
    "city": "Innsbruck",
    "lat": 47.28040733,
    "lng": 11.4099906,
    "country": "Austria"
  },
  {
    "city": "Vienna",
    "lat": 48.20001528,
    "lng": 16.36663896,
    "country": "Austria"
  },
  {
    "city": "Gadabay",
    "lat": 40.5655556,
    "lng": 45.8161111,
    "country": "Azerbaijan"
  },
  {
    "city": "Goranboy",
    "lat": 40.6102778,
    "lng": 46.7897222,
    "country": "Azerbaijan"
  },
  {
    "city": "Tovuz",
    "lat": 40.9922222,
    "lng": 45.6288889,
    "country": "Azerbaijan"
  },
  {
    "city": "Agdam",
    "lat": 40.9052778,
    "lng": 45.5563889,
    "country": "Azerbaijan"
  },
  {
    "city": "Qabala",
    "lat": 40.9813889,
    "lng": 47.8458333,
    "country": "Azerbaijan"
  },
  {
    "city": "Oguz",
    "lat": 41.0708333,
    "lng": 47.4583333,
    "country": "Azerbaijan"
  },
  {
    "city": "Ganca",
    "lat": 40.68499595,
    "lng": 46.35002844,
    "country": "Azerbaijan"
  },
  {
    "city": "Yevlax",
    "lat": 40.61719647,
    "lng": 47.15003129,
    "country": "Azerbaijan"
  },
  {
    "city": "Sumqayt",
    "lat": 40.58001528,
    "lng": 49.62998328,
    "country": "Azerbaijan"
  },
  {
    "city": "Ali Bayramli",
    "lat": 39.93230288,
    "lng": 48.92025915,
    "country": "Azerbaijan"
  },
  {
    "city": "Goycay",
    "lat": 40.65342165,
    "lng": 47.74058956,
    "country": "Azerbaijan"
  },
  {
    "city": "Lankaran",
    "lat": 38.7540027,
    "lng": 48.85106441,
    "country": "Azerbaijan"
  },
  {
    "city": "Saki",
    "lat": 41.19232932,
    "lng": 47.17054683,
    "country": "Azerbaijan"
  },
  {
    "city": "Stepanakert",
    "lat": 39.81564333,
    "lng": 46.75196773,
    "country": "Azerbaijan"
  },
  {
    "city": "Kapan",
    "lat": 39.20152061,
    "lng": 46.41498572,
    "country": "Azerbaijan"
  },
  {
    "city": "Naxcivan",
    "lat": 39.2092204,
    "lng": 45.41220455,
    "country": "Azerbaijan"
  },
  {
    "city": "Baku",
    "lat": 40.39527203,
    "lng": 49.86221716,
    "country": "Azerbaijan"
  },
  {
    "city": "Manama",
    "lat": 26.23613629,
    "lng": 50.58305172,
    "country": "Bahrain"
  },
  {
    "city": "Tangail",
    "lat": 24.24997845,
    "lng": 89.92003048,
    "country": "Bangladesh"
  },
  {
    "city": "Sylhet",
    "lat": 24.90355613,
    "lng": 91.87360632,
    "country": "Bangladesh"
  },
  {
    "city": "Mymensingh",
    "lat": 24.75041302,
    "lng": 90.3800024,
    "country": "Bangladesh"
  },
  {
    "city": "Jamalpur",
    "lat": 24.90042971,
    "lng": 89.95000281,
    "country": "Bangladesh"
  },
  {
    "city": "Narayanganj",
    "lat": 23.62040448,
    "lng": 90.49999508,
    "country": "Bangladesh"
  },
  {
    "city": "Jessore",
    "lat": 23.17043194,
    "lng": 89.19997107,
    "country": "Bangladesh"
  },
  {
    "city": "Barisal",
    "lat": 22.70040895,
    "lng": 90.37498979,
    "country": "Bangladesh"
  },
  {
    "city": "Comilla",
    "lat": 23.47041363,
    "lng": 91.16998002,
    "country": "Bangladesh"
  },
  {
    "city": "Pabna",
    "lat": 24.00038129,
    "lng": 89.24999385,
    "country": "Bangladesh"
  },
  {
    "city": "Nawabganj",
    "lat": 24.58039756,
    "lng": 88.34999711,
    "country": "Bangladesh"
  },
  {
    "city": "Saidpur",
    "lat": 25.80042645,
    "lng": 88.99998328,
    "country": "Bangladesh"
  },
  {
    "city": "Rangpur",
    "lat": 25.75001609,
    "lng": 89.28001786,
    "country": "Bangladesh"
  },
  {
    "city": "Khulna",
    "lat": 22.839987,
    "lng": 89.56000077,
    "country": "Bangladesh"
  },
  {
    "city": "Rajshahi",
    "lat": 24.37498374,
    "lng": 88.6050203,
    "country": "Bangladesh"
  },
  {
    "city": "Dhaka",
    "lat": 23.72305971,
    "lng": 90.40857947,
    "country": "Bangladesh"
  },
  {
    "city": "Chittagong",
    "lat": 22.32999229,
    "lng": 91.79996741,
    "country": "Bangladesh"
  },
  {
    "city": "Bridgetown",
    "lat": 13.10200258,
    "lng": -59.61652674,
    "country": "Barbados"
  },
  {
    "city": "Baranavichy",
    "lat": 53.13684572,
    "lng": 26.01344031,
    "country": "Belarus"
  },
  {
    "city": "Polatsk",
    "lat": 55.48938946,
    "lng": 28.78598425,
    "country": "Belarus"
  },
  {
    "city": "Maladzyechna",
    "lat": 54.31878908,
    "lng": 26.86532629,
    "country": "Belarus"
  },
  {
    "city": "Pinsk",
    "lat": 52.12786338,
    "lng": 26.09405554,
    "country": "Belarus"
  },
  {
    "city": "Mazyr",
    "lat": 52.04595624,
    "lng": 29.27215613,
    "country": "Belarus"
  },
  {
    "city": "Mahilyow",
    "lat": 53.89850466,
    "lng": 30.32465002,
    "country": "Belarus"
  },
  {
    "city": "Babruysk",
    "lat": 53.12656211,
    "lng": 29.19278113,
    "country": "Belarus"
  },
  {
    "city": "Orsha",
    "lat": 54.51531455,
    "lng": 30.42154333,
    "country": "Belarus"
  },
  {
    "city": "Lida",
    "lat": 53.88847943,
    "lng": 25.28464758,
    "country": "Belarus"
  },
  {
    "city": "Hrodna",
    "lat": 53.67787213,
    "lng": 23.83409013,
    "country": "Belarus"
  },
  {
    "city": "Barysaw",
    "lat": 54.22600405,
    "lng": 28.49215206,
    "country": "Belarus"
  },
  {
    "city": "Homyel",
    "lat": 52.43001548,
    "lng": 31.00000932,
    "country": "Belarus"
  },
  {
    "city": "Vitsyebsk",
    "lat": 55.18871014,
    "lng": 30.18533036,
    "country": "Belarus"
  },
  {
    "city": "Brest",
    "lat": 52.09998395,
    "lng": 23.69998979,
    "country": "Belarus"
  },
  {
    "city": "Minsk",
    "lat": 53.89997744,
    "lng": 27.56662716,
    "country": "Belarus"
  },
  {
    "city": "Mons",
    "lat": 50.44599911,
    "lng": 3.939003561,
    "country": "Belgium"
  },
  {
    "city": "Hasselt",
    "lat": 50.96400317,
    "lng": 5.483997561,
    "country": "Belgium"
  },
  {
    "city": "Arlon",
    "lat": 49.68330313,
    "lng": 5.816700472,
    "country": "Belgium"
  },
  {
    "city": "Gent",
    "lat": 51.02999758,
    "lng": 3.700021931,
    "country": "Belgium"
  },
  {
    "city": "Liege",
    "lat": 50.62999615,
    "lng": 5.580010537,
    "country": "Belgium"
  },
  {
    "city": "Brugge",
    "lat": 51.22037355,
    "lng": 3.230024779,
    "country": "Belgium"
  },
  {
    "city": "Namur",
    "lat": 50.47039349,
    "lng": 4.870028034,
    "country": "Belgium"
  },
  {
    "city": "Charleroi",
    "lat": 50.42039654,
    "lng": 4.450001992,
    "country": "Belgium"
  },
  {
    "city": "Antwerpen",
    "lat": 51.22037355,
    "lng": 4.415017048,
    "country": "Belgium"
  },
  {
    "city": "Brussels",
    "lat": 50.83331708,
    "lng": 4.333316608,
    "country": "Belgium"
  },
  {
    "city": "El Cayo",
    "lat": 17.15599807,
    "lng": -89.06100252,
    "country": "Belize"
  },
  {
    "city": "Corozal",
    "lat": 18.39799811,
    "lng": -88.3880005,
    "country": "Belize"
  },
  {
    "city": "Dangriga",
    "lat": 16.97003522,
    "lng": -88.22000045,
    "country": "Belize"
  },
  {
    "city": "Belize City",
    "lat": 17.49871096,
    "lng": -88.18837447,
    "country": "Belize"
  },
  {
    "city": "Orange Walk",
    "lat": 18.09043194,
    "lng": -88.5599797,
    "country": "Belize"
  },
  {
    "city": "Punta Gorda",
    "lat": 16.1003467,
    "lng": -88.81001612,
    "country": "Belize"
  },
  {
    "city": "Belmopan",
    "lat": 17.25203351,
    "lng": -88.767073,
    "country": "Belize"
  },
  {
    "city": "Lokossa",
    "lat": 6.615000092,
    "lng": 1.715004457,
    "country": "Benin"
  },
  {
    "city": "Kandi",
    "lat": 11.13036582,
    "lng": 2.940016641,
    "country": "Benin"
  },
  {
    "city": "Ouidah",
    "lat": 6.360372741,
    "lng": 2.089991006,
    "country": "Benin"
  },
  {
    "city": "Abomey",
    "lat": 7.190399596,
    "lng": 1.98999711,
    "country": "Benin"
  },
  {
    "city": "Natitingou",
    "lat": 10.32041526,
    "lng": 1.389982054,
    "country": "Benin"
  },
  {
    "city": "Djougou",
    "lat": 9.700427265,
    "lng": 1.680041869,
    "country": "Benin"
  },
  {
    "city": "Parakou",
    "lat": 9.340009988,
    "lng": 2.620036172,
    "country": "Benin"
  },
  {
    "city": "Porto-Novo",
    "lat": 6.483310973,
    "lng": 2.616625528,
    "country": "Benin"
  },
  {
    "city": "Cotonou",
    "lat": 6.400008564,
    "lng": 2.519990599,
    "country": "Benin"
  },
  {
    "city": "Hamilton",
    "lat": 32.29419029,
    "lng": -64.78393742,
    "country": "Bermuda"
  },
  {
    "city": "Paro",
    "lat": 27.3833011,
    "lng": 89.51670065,
    "country": "Bhutan"
  },
  {
    "city": "Punakha",
    "lat": 27.63330305,
    "lng": 89.83330266,
    "country": "Bhutan"
  },
  {
    "city": "Wangdue Prodrang",
    "lat": 27.43329603,
    "lng": 89.91669667,
    "country": "Bhutan"
  },
  {
    "city": "Thimphu",
    "lat": 27.47298586,
    "lng": 89.63901404,
    "country": "Bhutan"
  },
  {
    "city": "Punata",
    "lat": -17.55000242,
    "lng": -65.83997115,
    "country": "Bolivia"
  },
  {
    "city": "Cliza",
    "lat": -17.58999998,
    "lng": -65.9299915,
    "country": "Bolivia"
  },
  {
    "city": "Quillacollo",
    "lat": -17.39998574,
    "lng": -66.27999597,
    "country": "Bolivia"
  },
  {
    "city": "Puerto Villarroel",
    "lat": -16.87004393,
    "lng": -64.78001001,
    "country": "Bolivia"
  },
  {
    "city": "Tarabuco",
    "lat": -19.18003213,
    "lng": -64.91994979,
    "country": "Bolivia"
  },
  {
    "city": "Guayaramerin",
    "lat": -10.82999917,
    "lng": -65.4099974,
    "country": "Bolivia"
  },
  {
    "city": "Santa Ana",
    "lat": -13.7600012,
    "lng": -65.57996118,
    "country": "Bolivia"
  },
  {
    "city": "Baures",
    "lat": -13.58001219,
    "lng": -63.58005742,
    "country": "Bolivia"
  },
  {
    "city": "Sica Sica",
    "lat": -17.33001585,
    "lng": -67.72998499,
    "country": "Bolivia"
  },
  {
    "city": "Rurrenabaque",
    "lat": -14.46001015,
    "lng": -67.55999536,
    "country": "Bolivia"
  },
  {
    "city": "Sorata",
    "lat": -15.79000649,
    "lng": -68.66005742,
    "country": "Bolivia"
  },
  {
    "city": "Achacachi",
    "lat": -16.08332192,
    "lng": -68.66656865,
    "country": "Bolivia"
  },
  {
    "city": "Viacha",
    "lat": -16.65000568,
    "lng": -68.2999502,
    "country": "Bolivia"
  },
  {
    "city": "Quime",
    "lat": -16.98001137,
    "lng": -67.22001612,
    "country": "Bolivia"
  },
  {
    "city": "Llallagua",
    "lat": -18.42002684,
    "lng": -66.63999984,
    "country": "Bolivia"
  },
  {
    "city": "Uncia",
    "lat": -18.46999795,
    "lng": -66.57002995,
    "country": "Bolivia"
  },
  {
    "city": "Uyuni",
    "lat": -20.46000568,
    "lng": -66.82998824,
    "country": "Bolivia"
  },
  {
    "city": "Villa Martin",
    "lat": -20.76655027,
    "lng": -67.7833409,
    "country": "Bolivia"
  },
  {
    "city": "Betanzos",
    "lat": -19.55995726,
    "lng": -65.45002079,
    "country": "Bolivia"
  },
  {
    "city": "Portachuelo",
    "lat": -17.36003986,
    "lng": -63.40001673,
    "country": "Bolivia"
  },
  {
    "city": "Samaipata",
    "lat": -18.18004148,
    "lng": -63.77001998,
    "country": "Bolivia"
  },
  {
    "city": "Cuevo",
    "lat": -20.45003213,
    "lng": -63.52998295,
    "country": "Bolivia"
  },
  {
    "city": "San Carlos",
    "lat": -17.39998574,
    "lng": -63.72999658,
    "country": "Bolivia"
  },
  {
    "city": "San Lorenzo",
    "lat": -21.47994342,
    "lng": -64.77001062,
    "country": "Bolivia"
  },
  {
    "city": "Entre Rios",
    "lat": -21.53001788,
    "lng": -64.18999435,
    "country": "Bolivia"
  },
  {
    "city": "Aiquile",
    "lat": -18.18954995,
    "lng": -65.18001144,
    "country": "Bolivia"
  },
  {
    "city": "Padilla",
    "lat": -19.29961139,
    "lng": -64.30996118,
    "country": "Bolivia"
  },
  {
    "city": "Camargo",
    "lat": -20.63958128,
    "lng": -65.20998377,
    "country": "Bolivia"
  },
  {
    "city": "Reyes",
    "lat": -14.30958006,
    "lng": -67.37000696,
    "country": "Bolivia"
  },
  {
    "city": "San Borja",
    "lat": -14.81962645,
    "lng": -66.84996118,
    "country": "Bolivia"
  },
  {
    "city": "Magdalena",
    "lat": -13.2600834,
    "lng": -64.05276758,
    "country": "Bolivia"
  },
  {
    "city": "San Ramon",
    "lat": -13.28959064,
    "lng": -64.70998845,
    "country": "Bolivia"
  },
  {
    "city": "Puerto Heath",
    "lat": -12.49961302,
    "lng": -68.66656865,
    "country": "Bolivia"
  },
  {
    "city": "Charana",
    "lat": -17.5996118,
    "lng": -69.46659733,
    "country": "Bolivia"
  },
  {
    "city": "Puerto Acosta",
    "lat": -15.49958494,
    "lng": -69.16666732,
    "country": "Bolivia"
  },
  {
    "city": "Apolo",
    "lat": -14.71958087,
    "lng": -68.41999455,
    "country": "Bolivia"
  },
  {
    "city": "Coroico",
    "lat": -16.18962034,
    "lng": -67.72001144,
    "country": "Bolivia"
  },
  {
    "city": "Coro Coro",
    "lat": -17.1696122,
    "lng": -68.44996688,
    "country": "Bolivia"
  },
  {
    "city": "Sabaya",
    "lat": -19.01626951,
    "lng": -68.38327844,
    "country": "Bolivia"
  },
  {
    "city": "Challapata",
    "lat": -18.89958413,
    "lng": -66.77999129,
    "country": "Bolivia"
  },
  {
    "city": "Llica",
    "lat": -19.84960366,
    "lng": -68.25003076,
    "country": "Bolivia"
  },
  {
    "city": "Potosi",
    "lat": -19.56956907,
    "lng": -65.75002832,
    "country": "Bolivia"
  },
  {
    "city": "Villazon",
    "lat": -22.07959674,
    "lng": -65.5999858,
    "country": "Bolivia"
  },
  {
    "city": "Tupiza",
    "lat": -21.43958413,
    "lng": -65.72000431,
    "country": "Bolivia"
  },
  {
    "city": "Montero",
    "lat": -17.34960122,
    "lng": -63.26002527,
    "country": "Bolivia"
  },
  {
    "city": "Piso Firme",
    "lat": -13.68295164,
    "lng": -61.86662195,
    "country": "Bolivia"
  },
  {
    "city": "Robore",
    "lat": -18.3295414,
    "lng": -59.75998051,
    "country": "Bolivia"
  },
  {
    "city": "Puerto Quijarro",
    "lat": -17.77960081,
    "lng": -57.77002446,
    "country": "Bolivia"
  },
  {
    "city": "San Ignacio",
    "lat": -16.36960936,
    "lng": -60.96001062,
    "country": "Bolivia"
  },
  {
    "city": "Ascension",
    "lat": -15.69957273,
    "lng": -63.07998458,
    "country": "Bolivia"
  },
  {
    "city": "San Javier",
    "lat": -16.28961424,
    "lng": -62.50001998,
    "country": "Bolivia"
  },
  {
    "city": "San Rafael",
    "lat": -16.77950682,
    "lng": -60.6799502,
    "country": "Bolivia"
  },
  {
    "city": "Vallegrande",
    "lat": -18.48958331,
    "lng": -64.10999923,
    "country": "Bolivia"
  },
  {
    "city": "Puerto Suarez",
    "lat": -18.94955524,
    "lng": -57.8499679,
    "country": "Bolivia"
  },
  {
    "city": "Charagua",
    "lat": -19.79958087,
    "lng": -63.2199502,
    "country": "Bolivia"
  },
  {
    "city": "Villamontes",
    "lat": -21.24956989,
    "lng": -63.50001062,
    "country": "Bolivia"
  },
  {
    "city": "Bermejo",
    "lat": -22.72958291,
    "lng": -64.34998458,
    "country": "Bolivia"
  },
  {
    "city": "Cochabamba",
    "lat": -17.41001097,
    "lng": -66.16997685,
    "country": "Bolivia"
  },
  {
    "city": "Oruro",
    "lat": -17.97995034,
    "lng": -67.12999577,
    "country": "Bolivia"
  },
  {
    "city": "Camiri",
    "lat": -20.05000486,
    "lng": -63.51998356,
    "country": "Bolivia"
  },
  {
    "city": "Cobija",
    "lat": -11.03334593,
    "lng": -68.73330876,
    "country": "Bolivia"
  },
  {
    "city": "San Matias",
    "lat": -16.35999754,
    "lng": -58.42001062,
    "country": "Bolivia"
  },
  {
    "city": "San José",
    "lat": -17.85003579,
    "lng": -60.77999577,
    "country": "Bolivia"
  },
  {
    "city": "Trinidad",
    "lat": -14.83337238,
    "lng": -64.89997685,
    "country": "Bolivia"
  },
  {
    "city": "Tarija",
    "lat": -21.51668537,
    "lng": -64.749986,
    "country": "Bolivia"
  },
  {
    "city": "Sucre",
    "lat": -19.04097085,
    "lng": -65.25951563,
    "country": "Bolivia"
  },
  {
    "city": "Riberalta",
    "lat": -10.98301308,
    "lng": -66.10000696,
    "country": "Bolivia"
  },
  {
    "city": "La Paz",
    "lat": -16.49797361,
    "lng": -68.14998519,
    "country": "Bolivia"
  },
  {
    "city": "Santa Cruz",
    "lat": -17.75391762,
    "lng": -63.22599634,
    "country": "Bolivia"
  },
  {
    "city": "Zenica",
    "lat": 44.21997398,
    "lng": 17.91998083,
    "country": "Bosnia and Herzegovina"
  },
  {
    "city": "Mostar",
    "lat": 43.35049217,
    "lng": 17.82003861,
    "country": "Bosnia and Herzegovina"
  },
  {
    "city": "Tuzla",
    "lat": 44.5504706,
    "lng": 18.6800378,
    "country": "Bosnia and Herzegovina"
  },
  {
    "city": "Prijedor",
    "lat": 44.98039268,
    "lng": 16.70000362,
    "country": "Bosnia and Herzegovina"
  },
  {
    "city": "Banja Luka",
    "lat": 44.78040489,
    "lng": 17.17997432,
    "country": "Bosnia and Herzegovina"
  },
  {
    "city": "Sarajevo",
    "lat": 43.8500224,
    "lng": 18.38300167,
    "country": "Bosnia and Herzegovina"
  },
  {
    "city": "Mochudi",
    "lat": -24.377004,
    "lng": 26.15200256,
    "country": "Botswana"
  },
  {
    "city": "Ghanzi",
    "lat": -21.69961994,
    "lng": 21.63996049,
    "country": "Botswana"
  },
  {
    "city": "Lokhwabe",
    "lat": -24.16959837,
    "lng": 21.83002641,
    "country": "Botswana"
  },
  {
    "city": "Lehututu",
    "lat": -23.96961058,
    "lng": 21.87002397,
    "country": "Botswana"
  },
  {
    "city": "Tshabong",
    "lat": -26.00948606,
    "lng": 22.40001745,
    "country": "Botswana"
  },
  {
    "city": "Tsau",
    "lat": -20.15961058,
    "lng": 22.45996212,
    "country": "Botswana"
  },
  {
    "city": "Nokaneng",
    "lat": -19.66961465,
    "lng": 22.26999955,
    "country": "Botswana"
  },
  {
    "city": "Mohembo",
    "lat": -18.29956907,
    "lng": 21.8000024,
    "country": "Botswana"
  },
  {
    "city": "Maun",
    "lat": -19.98959511,
    "lng": 23.42000688,
    "country": "Botswana"
  },
  {
    "city": "Kasane",
    "lat": -17.80957314,
    "lng": 25.15003048,
    "country": "Botswana"
  },
  {
    "city": "Nata",
    "lat": -20.20947833,
    "lng": 26.19001868,
    "country": "Botswana"
  },
  {
    "city": "Mopipi",
    "lat": -21.17954832,
    "lng": 24.88002112,
    "country": "Botswana"
  },
  {
    "city": "Palapye",
    "lat": -22.55961912,
    "lng": 27.13001298,
    "country": "Botswana"
  },
  {
    "city": "Lobatse",
    "lat": -25.2196118,
    "lng": 25.68002397,
    "country": "Botswana"
  },
  {
    "city": "Kanye",
    "lat": -24.96960122,
    "lng": 25.33999304,
    "country": "Botswana"
  },
  {
    "city": "Molepolole",
    "lat": -24.3999719,
    "lng": 25.5100085,
    "country": "Botswana"
  },
  {
    "city": "Francistown",
    "lat": -21.17003986,
    "lng": 27.50001623,
    "country": "Botswana"
  },
  {
    "city": "Mahalapye",
    "lat": -23.09999957,
    "lng": 26.82000606,
    "country": "Botswana"
  },
  {
    "city": "Serowe",
    "lat": -22.39001707,
    "lng": 26.71003861,
    "country": "Botswana"
  },
  {
    "city": "Gaborone",
    "lat": -24.64631346,
    "lng": 25.91194779,
    "country": "Botswana"
  },
  {
    "city": "Grajau",
    "lat": -5.809995505,
    "lng": -46.14998438,
    "country": "Brazil"
  },
  {
    "city": "Presidente Dutra",
    "lat": -5.250029685,
    "lng": -44.51998051,
    "country": "Brazil"
  },
  {
    "city": "Itapecuru Mirim",
    "lat": -3.400013409,
    "lng": -44.36001611,
    "country": "Brazil"
  },
  {
    "city": "Sao Jose de Ribamar",
    "lat": -2.549987774,
    "lng": -44.06998214,
    "country": "Brazil"
  },
  {
    "city": "Santa Ines",
    "lat": -3.659997539,
    "lng": -45.39003076,
    "country": "Brazil"
  },
  {
    "city": "Rosario",
    "lat": -2.940041485,
    "lng": -44.26002222,
    "country": "Brazil"
  },
  {
    "city": "Timon",
    "lat": -5.114999167,
    "lng": -42.84496647,
    "country": "Brazil"
  },
  {
    "city": "Capanema",
    "lat": -1.190019105,
    "lng": -47.17999903,
    "country": "Brazil"
  },
  {
    "city": "Portel",
    "lat": -1.949972718,
    "lng": -50.81998356,
    "country": "Brazil"
  },
  {
    "city": "Itupiranga",
    "lat": -5.120011781,
    "lng": -49.30002466,
    "country": "Brazil"
  },
  {
    "city": "Pimenta Bueno",
    "lat": -11.64002724,
    "lng": -61.20999536,
    "country": "Brazil"
  },
  {
    "city": "Ponta Pora",
    "lat": -22.53000853,
    "lng": -55.7299681,
    "country": "Brazil"
  },
  {
    "city": "Maracaju",
    "lat": -21.610013,
    "lng": -55.18002751,
    "country": "Brazil"
  },
  {
    "city": "Jardim",
    "lat": -21.47994342,
    "lng": -56.15001998,
    "country": "Brazil"
  },
  {
    "city": "Tres Lagoas",
    "lat": -20.79001137,
    "lng": -51.72000615,
    "country": "Brazil"
  },
  {
    "city": "Guanhaes",
    "lat": -18.78000486,
    "lng": -42.95002466,
    "country": "Brazil"
  },
  {
    "city": "Leopoldina",
    "lat": -21.53001788,
    "lng": -42.64004358,
    "country": "Brazil"
  },
  {
    "city": "Nova Lima",
    "lat": -19.98003497,
    "lng": -43.8500214,
    "country": "Brazil"
  },
  {
    "city": "Pouso Alegre",
    "lat": -22.22000161,
    "lng": -45.94002303,
    "country": "Brazil"
  },
  {
    "city": "Itauna",
    "lat": -20.06003009,
    "lng": -44.57002914,
    "country": "Brazil"
  },
  {
    "city": "Caratinga",
    "lat": -19.79002073,
    "lng": -42.13999658,
    "country": "Brazil"
  },
  {
    "city": "Diamantina",
    "lat": -18.23998615,
    "lng": -43.60998438,
    "country": "Brazil"
  },
  {
    "city": "Nanuque",
    "lat": -17.83995888,
    "lng": -40.35002832,
    "country": "Brazil"
  },
  {
    "city": "Barbacena",
    "lat": -21.22001097,
    "lng": -43.77000045,
    "country": "Brazil"
  },
  {
    "city": "Pocos de Caldas",
    "lat": -21.78002846,
    "lng": -46.56998458,
    "country": "Brazil"
  },
  {
    "city": "Guaxupe",
    "lat": -21.29003253,
    "lng": -46.7099502,
    "country": "Brazil"
  },
  {
    "city": "Sao Joao del Rei",
    "lat": -21.1300423,
    "lng": -44.24999699,
    "country": "Brazil"
  },
  {
    "city": "Muriae",
    "lat": -21.1300423,
    "lng": -42.38998132,
    "country": "Brazil"
  },
  {
    "city": "Passos",
    "lat": -20.71001626,
    "lng": -46.60998214,
    "country": "Brazil"
  },
  {
    "city": "Conselheiro Lafaiete",
    "lat": -20.6700187,
    "lng": -43.78999923,
    "country": "Brazil"
  },
  {
    "city": "Formiga",
    "lat": -20.46000568,
    "lng": -45.43002832,
    "country": "Brazil"
  },
  {
    "city": "Frutal",
    "lat": -20.03000608,
    "lng": -48.94002079,
    "country": "Brazil"
  },
  {
    "city": "Iturama",
    "lat": -19.72997272,
    "lng": -50.2000214,
    "country": "Brazil"
  },
  {
    "city": "Ituiutaba",
    "lat": -18.97001911,
    "lng": -49.45998906,
    "country": "Brazil"
  },
  {
    "city": "Araguari",
    "lat": -18.64001341,
    "lng": -48.19998845,
    "country": "Brazil"
  },
  {
    "city": "Almenara",
    "lat": -16.17003497,
    "lng": -40.70000696,
    "country": "Brazil"
  },
  {
    "city": "Varzea Grande",
    "lat": -15.65001504,
    "lng": -56.14002059,
    "country": "Brazil"
  },
  {
    "city": "Cáceres",
    "lat": -16.0500423,
    "lng": -57.51001449,
    "country": "Brazil"
  },
  {
    "city": "Santana do Livramento",
    "lat": -30.88004148,
    "lng": -55.53000615,
    "country": "Brazil"
  },
  {
    "city": "Canoas",
    "lat": -29.91999673,
    "lng": -51.17998743,
    "country": "Brazil"
  },
  {
    "city": "Quarai",
    "lat": -30.38002033,
    "lng": -56.45994938,
    "country": "Brazil"
  },
  {
    "city": "Santa Vitoria do Palmar",
    "lat": -33.52003538,
    "lng": -53.36998295,
    "country": "Brazil"
  },
  {
    "city": "Sao Lourenco do Sul",
    "lat": -31.36998574,
    "lng": -51.98001611,
    "country": "Brazil"
  },
  {
    "city": "Canela",
    "lat": -29.36003091,
    "lng": -50.81001001,
    "country": "Brazil"
  },
  {
    "city": "Sao Gabriel",
    "lat": -30.32002399,
    "lng": -54.32002832,
    "country": "Brazil"
  },
  {
    "city": "Rosario do Sul",
    "lat": -30.25000242,
    "lng": -54.92001754,
    "country": "Brazil"
  },
  {
    "city": "Cachoeira do Sul",
    "lat": -30.02996417,
    "lng": -52.90998519,
    "country": "Brazil"
  },
  {
    "city": "Osorio",
    "lat": -29.87999917,
    "lng": -50.26999129,
    "country": "Brazil"
  },
  {
    "city": "Santa Cruz do Sul",
    "lat": -29.71003538,
    "lng": -52.44003972,
    "country": "Brazil"
  },
  {
    "city": "Sao Luiz Gonzaga",
    "lat": -28.41001137,
    "lng": -54.95998926,
    "country": "Brazil"
  },
  {
    "city": "Santo Angelo",
    "lat": -28.30004393,
    "lng": -54.28003076,
    "country": "Brazil"
  },
  {
    "city": "Carazinho",
    "lat": -28.2900187,
    "lng": -52.80004358,
    "country": "Brazil"
  },
  {
    "city": "Erechim",
    "lat": -27.63000731,
    "lng": -52.26999841,
    "country": "Brazil"
  },
  {
    "city": "Guaira",
    "lat": -24.08996499,
    "lng": -54.2699797,
    "country": "Brazil"
  },
  {
    "city": "Palmas",
    "lat": -26.47999998,
    "lng": -51.99998906,
    "country": "Brazil"
  },
  {
    "city": "Arapongas",
    "lat": -23.41000649,
    "lng": -51.43004968,
    "country": "Brazil"
  },
  {
    "city": "Paranagua",
    "lat": -25.52787556,
    "lng": -48.53445345,
    "country": "Brazil"
  },
  {
    "city": "Sao Jose dos Pinhais",
    "lat": -25.57002968,
    "lng": -49.18000615,
    "country": "Brazil"
  },
  {
    "city": "Guarapuava",
    "lat": -25.38001544,
    "lng": -51.48002079,
    "country": "Brazil"
  },
  {
    "city": "Rio Negro",
    "lat": -26.10002317,
    "lng": -49.79002059,
    "country": "Brazil"
  },
  {
    "city": "Apucarana",
    "lat": -23.54999795,
    "lng": -51.4700214,
    "country": "Brazil"
  },
  {
    "city": "Lapa",
    "lat": -25.76004393,
    "lng": -49.72999841,
    "country": "Brazil"
  },
  {
    "city": "Irati",
    "lat": -25.47003579,
    "lng": -50.65996749,
    "country": "Brazil"
  },
  {
    "city": "Castro",
    "lat": -24.79002562,
    "lng": -50.00998132,
    "country": "Brazil"
  },
  {
    "city": "Telemaco Borba",
    "lat": -24.32995034,
    "lng": -50.61999577,
    "country": "Brazil"
  },
  {
    "city": "Jacarezinho",
    "lat": -23.15994424,
    "lng": -49.97998316,
    "country": "Brazil"
  },
  {
    "city": "Concordia",
    "lat": -27.23003172,
    "lng": -52.03001306,
    "country": "Brazil"
  },
  {
    "city": "Blumenau",
    "lat": -26.9200248,
    "lng": -49.0899858,
    "country": "Brazil"
  },
  {
    "city": "Brusque",
    "lat": -27.12998615,
    "lng": -48.9300214,
    "country": "Brazil"
  },
  {
    "city": "Ararangua",
    "lat": -28.94000486,
    "lng": -49.49998661,
    "country": "Brazil"
  },
  {
    "city": "Jaragua do Sul",
    "lat": -26.47999998,
    "lng": -49.09998519,
    "country": "Brazil"
  },
  {
    "city": "Tubarao",
    "lat": -28.48003294,
    "lng": -49.02001591,
    "country": "Brazil"
  },
  {
    "city": "Laguna",
    "lat": -28.48003294,
    "lng": -48.77997888,
    "country": "Brazil"
  },
  {
    "city": "Joacaba",
    "lat": -27.17003538,
    "lng": -51.4999679,
    "country": "Brazil"
  },
  {
    "city": "Cacador",
    "lat": -26.77000812,
    "lng": -51.02002303,
    "country": "Brazil"
  },
  {
    "city": "Canoinhas",
    "lat": -26.17996662,
    "lng": -50.4000092,
    "country": "Brazil"
  },
  {
    "city": "Camocim",
    "lat": -2.89999225,
    "lng": -40.85002364,
    "country": "Brazil"
  },
  {
    "city": "Russas",
    "lat": -4.940022767,
    "lng": -37.97999211,
    "country": "Brazil"
  },
  {
    "city": "Sobral",
    "lat": -3.690021547,
    "lng": -40.35002832,
    "country": "Brazil"
  },
  {
    "city": "Iguatu",
    "lat": -6.359987774,
    "lng": -39.29998906,
    "country": "Brazil"
  },
  {
    "city": "Quixada",
    "lat": -4.969995098,
    "lng": -39.02000615,
    "country": "Brazil"
  },
  {
    "city": "Caninde",
    "lat": -4.35003294,
    "lng": -39.30998845,
    "country": "Brazil"
  },
  {
    "city": "Campo Maior",
    "lat": -4.820030091,
    "lng": -42.18001998,
    "country": "Brazil"
  },
  {
    "city": "Barras",
    "lat": -4.250039043,
    "lng": -42.29998682,
    "country": "Brazil"
  },
  {
    "city": "Rio Largo",
    "lat": -9.48000405,
    "lng": -35.83996769,
    "country": "Brazil"
  },
  {
    "city": "Palmeira dos Indios",
    "lat": -9.416597067,
    "lng": -36.61663863,
    "country": "Brazil"
  },
  {
    "city": "Santa Cruz Cabralia",
    "lat": -16.28000242,
    "lng": -39.0299797,
    "country": "Brazil"
  },
  {
    "city": "Paulo Afonso",
    "lat": -9.330659161,
    "lng": -38.26565943,
    "country": "Brazil"
  },
  {
    "city": "Brumado",
    "lat": -14.20999957,
    "lng": -41.67002527,
    "country": "Brazil"
  },
  {
    "city": "Jaguaquara",
    "lat": -13.5299894,
    "lng": -39.96999984,
    "country": "Brazil"
  },
  {
    "city": "Itapetinga",
    "lat": -15.24998777,
    "lng": -40.24998275,
    "country": "Brazil"
  },
  {
    "city": "Ubaitaba",
    "lat": -14.30001992,
    "lng": -39.33001306,
    "country": "Brazil"
  },
  {
    "city": "Cachoeiro de Itapemirim",
    "lat": -20.85000771,
    "lng": -41.12998071,
    "country": "Brazil"
  },
  {
    "city": "Barra Mansa",
    "lat": -22.56003253,
    "lng": -44.1699502,
    "country": "Brazil"
  },
  {
    "city": "Nova Iguacu",
    "lat": -22.74002155,
    "lng": -43.46996708,
    "country": "Brazil"
  },
  {
    "city": "Duque de Caxias",
    "lat": -22.76999388,
    "lng": -43.30997685,
    "country": "Brazil"
  },
  {
    "city": "Niteroi",
    "lat": -22.90001178,
    "lng": -43.09998967,
    "country": "Brazil"
  },
  {
    "city": "Cabo Frio",
    "lat": -22.88998655,
    "lng": -42.03997685,
    "country": "Brazil"
  },
  {
    "city": "Macae",
    "lat": -22.37999184,
    "lng": -41.78999211,
    "country": "Brazil"
  },
  {
    "city": "Miracema",
    "lat": -21.41002521,
    "lng": -42.19996708,
    "country": "Brazil"
  },
  {
    "city": "Apodi",
    "lat": -5.650005271,
    "lng": -37.80000309,
    "country": "Brazil"
  },
  {
    "city": "Santa Cruz",
    "lat": -6.219996319,
    "lng": -36.02998194,
    "country": "Brazil"
  },
  {
    "city": "Morrinhos",
    "lat": -17.73004311,
    "lng": -49.10998458,
    "country": "Brazil"
  },
  {
    "city": "Ceres",
    "lat": -15.30331785,
    "lng": -49.60519983,
    "country": "Brazil"
  },
  {
    "city": "Catalao",
    "lat": -18.18004148,
    "lng": -47.9500037,
    "country": "Brazil"
  },
  {
    "city": "Cristalina",
    "lat": -16.76999835,
    "lng": -47.61002446,
    "country": "Brazil"
  },
  {
    "city": "Trindade",
    "lat": -16.65000568,
    "lng": -49.49998661,
    "country": "Brazil"
  },
  {
    "city": "Ipora",
    "lat": -16.45001788,
    "lng": -51.12999048,
    "country": "Brazil"
  },
  {
    "city": "Inhumas",
    "lat": -16.35999754,
    "lng": -49.49998661,
    "country": "Brazil"
  },
  {
    "city": "Itaberai",
    "lat": -16.01996662,
    "lng": -49.80996769,
    "country": "Brazil"
  },
  {
    "city": "Santo Andre",
    "lat": -23.65283405,
    "lng": -46.52781661,
    "country": "Brazil"
  },
  {
    "city": "Pindamonhangaba",
    "lat": -22.91995888,
    "lng": -45.47002588,
    "country": "Brazil"
  },
  {
    "city": "Rio Claro",
    "lat": -22.40996417,
    "lng": -47.56002751,
    "country": "Brazil"
  },
  {
    "city": "Ourinhos",
    "lat": -22.97003335,
    "lng": -49.86998987,
    "country": "Brazil"
  },
  {
    "city": "Itanhaem",
    "lat": -24.17998533,
    "lng": -46.80002222,
    "country": "Brazil"
  },
  {
    "city": "Jaboticabal",
    "lat": -21.25003497,
    "lng": -48.32998051,
    "country": "Brazil"
  },
  {
    "city": "Braganca Paulista",
    "lat": -22.95003457,
    "lng": -46.5499858,
    "country": "Brazil"
  },
  {
    "city": "Jundiai",
    "lat": -23.19999347,
    "lng": -46.8799915,
    "country": "Brazil"
  },
  {
    "city": "Sao Jose dos Campos",
    "lat": -23.19999347,
    "lng": -45.87994918,
    "country": "Brazil"
  },
  {
    "city": "Guaratingueta",
    "lat": -22.81996499,
    "lng": -45.18999129,
    "country": "Brazil"
  },
  {
    "city": "Pirassununga",
    "lat": -21.99004148,
    "lng": -47.42998377,
    "country": "Brazil"
  },
  {
    "city": "Americana",
    "lat": -22.74994342,
    "lng": -47.32998987,
    "country": "Brazil"
  },
  {
    "city": "Piracicaba",
    "lat": -22.70999754,
    "lng": -47.63999679,
    "country": "Brazil"
  },
  {
    "city": "Sao Joao da Boa Vista",
    "lat": -21.98001626,
    "lng": -46.78999699,
    "country": "Brazil"
  },
  {
    "city": "Sao Carlos",
    "lat": -22.02001382,
    "lng": -47.88998153,
    "country": "Brazil"
  },
  {
    "city": "Tupa",
    "lat": -21.92999347,
    "lng": -50.5199502,
    "country": "Brazil"
  },
  {
    "city": "Penapolis",
    "lat": -21.41002521,
    "lng": -50.08000289,
    "country": "Brazil"
  },
  {
    "city": "Presidente Prudente",
    "lat": -22.12000771,
    "lng": -51.39000045,
    "country": "Brazil"
  },
  {
    "city": "Registro",
    "lat": -24.49004393,
    "lng": -47.83998458,
    "country": "Brazil"
  },
  {
    "city": "Tatui",
    "lat": -23.35001015,
    "lng": -47.8600092,
    "country": "Brazil"
  },
  {
    "city": "Avare",
    "lat": -23.1100248,
    "lng": -48.9300214,
    "country": "Brazil"
  },
  {
    "city": "Garca",
    "lat": -22.22000161,
    "lng": -49.65997685,
    "country": "Brazil"
  },
  {
    "city": "Catanduva",
    "lat": -21.14001585,
    "lng": -48.97996668,
    "country": "Brazil"
  },
  {
    "city": "Batatais",
    "lat": -20.89000527,
    "lng": -47.58999984,
    "country": "Brazil"
  },
  {
    "city": "Barretos",
    "lat": -20.55002602,
    "lng": -48.58001693,
    "country": "Brazil"
  },
  {
    "city": "Marilia",
    "lat": -22.21002806,
    "lng": -49.95001083,
    "country": "Brazil"
  },